[
  {
    "name": "北回归线广场",
    "address": "北回归线广场",
    "real_address": "汕头市南澳县336省道陆秀夫墓附近",
    "lng": 117.143015,
    "lat": 23.448286
  },
  {
    "name": "金山村村委",
    "address": "金山村办公址停车场",
    "real_address": "汕头市南澳县",
    "lng": 117.116035,
    "lat": 23.446676
  },
  {
    "name": "三澳村",
    "address": "三澳村村委会",
    "real_address": "汕头市南澳县",
    "lng": 117.113753,
    "lat": 23.472182
  },
  {
    "name": "走马埔村",
    "address": "走马埔村村卫生站前广场",
    "real_address": "广东省汕头市南澳县",
    "lng": 117.063255,
    "lat": 23.474045
  },
  {
    "name": "后花园村",
    "address": "后花园村办公址停车场",
    "real_address": "汕头市南澳县南澳岛生态旅游区",
    "lng": 117.086699,
    "lat": 23.445997
  },
  {
    "name": "海滨村",
    "address": "深澳镇妈宫广场",
    "real_address": "南澳601路;南澳602路",
    "lng": 117.10717,
    "lat": 23.461688
  },
  {
    "name": "宋井停车场",
    "address": "宋井停车场",
    "real_address": "汕头市南澳县汕头南澳岛旅游区宋井风景区内",
    "lng": 117.114369,
    "lat": 23.403131
  },
  {
    "name": "莱园村委会",
    "address": "村委大楼操场",
    "real_address": "汕头市南澳县云澳镇坎头顶",
    "lng": 117.112049,
    "lat": 23.413753
  },
  {
    "name": "云迪镇卫生院",
    "address": "云迪中心卫生院",
    "real_address": "汕头市南澳县云澳镇隆云路4号",
    "lng": 117.106969,
    "lat": 23.413772
  },
  {
    "name": "云理中心小学旁",
    "address": "云奥中心小学旁",
    "real_address": "广东省汕头市南澳县云澳镇台湾街5号",
    "lng": 117.111869,
    "lat": 23.412848
  },
  {
    "name": "南台村委员会",
    "address": "南台村委会",
    "real_address": "汕头市南澳县",
    "lng": 117.112913,
    "lat": 23.408515
  },
  {
    "name": "云澳电影院",
    "address": "云澳电影院",
    "real_address": "汕头市南澳县港边东路汕头南澳岛旅游区",
    "lng": 117.115402,
    "lat": 23.409937
  },
  {
    "name": "少年宫",
    "address": "少年宫",
    "real_address": "汕头市南澳县中兴路与瑞祥路交叉路口往北约60米",
    "lng": 117.029135,
    "lat": 23.430471
  },
  {
    "name": "游客中心",
    "address": "游客中心停车场",
    "real_address": "广东省汕头市南澳县海滨路9号",
    "lng": 117.033087,
    "lat": 23.422213
  },
  {
    "name": "山顶农卫生站",
    "address": "山顶农卫生站旁",
    "real_address": "广东省汕头市南澳县祖师庙前方约100米",
    "lng": 117.041234,
    "lat": 23.424617
  },
  {
    "name": "南光村",
    "address": "南光村村委会",
    "real_address": "汕头市南澳县龙滨路港畔花园",
    "lng": 117.035351,
    "lat": 23.430146
  },
  {
    "name": "西山村、黄花山",
    "address": "西山盐村委会门口小公园",
    "real_address": "广东省汕头市南澳县后宅镇中兴路西山小学",
    "lng": 117.020298,
    "lat": 23.439833
  },
  {
    "name": "羊屿村",
    "address": "原羊屿小学",
    "real_address": "汕头市南澳县",
    "lng": 117.048508,
    "lat": 23.446955
  },
  {
    "name": "镇文化站",
    "address": "文化服务中心",
    "real_address": "广东省汕头市南澳县南光园西路国信中兴大厦北侧约150米",
    "lng": 117.031439,
    "lat": 23.43237
  },
  {
    "name": "龙地妈祖",
    "address": "龙地妈祖",
    "real_address": "汕头市南澳县",
    "lng": 117.037792,
    "lat": 23.425235
  },
  {
    "name": "城西村委会",
    "address": "城西村委会",
    "real_address": "广东省汕头市南澳县政府东北",
    "lng": 117.030073,
    "lat": 23.428154
  },
  {
    "name": "凯顺丽园",
    "address": "中兴路凯顺丽园",
    "real_address": "广东省汕头市南澳县S336(中兴路南澳县公安局东侧)",
    "lng": 117.022372,
    "lat": 23.432734
  },
  {
    "name": "蓝帆酒店",
    "address": "蓝帆酒店",
    "real_address": "广东省汕头市南澳县龙滨路72号",
    "lng": 117.03666,
    "lat": 23.423748
  },
  {
    "name": "大华路第一小学",
    "address": "大华路24号",
    "real_address": "金平区",
    "lng": 116.697548,
    "lat": 23.362131
  },
  {
    "name": "大华路2号",
    "address": "大华路2号",
    "real_address": "汕头市金平区大华路2号",
    "lng": 116.697979,
    "lat": 23.358639
  },
  {
    "name": "潮丰宾馆",
    "address": "红领巾路18号",
    "real_address": "金平区",
    "lng": 116.701303,
    "lat": 23.3582
  },
  {
    "name": "大华路第二小学",
    "address": "大华路43号",
    "real_address": "汕头市金平区大华路43号",
    "lng": 116.696462,
    "lat": 23.366572
  },
  {
    "name": "炽昌街心花园",
    "address": "大华路45号与炽昌东巷37号之间",
    "real_address": "广东省汕头市金平区星群巷与黄岗路交叉口西120米",
    "lng": 116.696693,
    "lat": 23.366479
  },
  {
    "name": "市公交总公司大华修理厂",
    "address": "大华路57号",
    "real_address": "金平区",
    "lng": 116.695276,
    "lat": 23.370217
  },
  {
    "name": "凯悦华庭正门",
    "address": "春梅街东段",
    "real_address": "广东省汕头市金平区",
    "lng": 116.704095,
    "lat": 23.36767
  },
  {
    "name": "华坞小学",
    "address": "华坞路10号",
    "real_address": "金平区",
    "lng": 116.698698,
    "lat": 23.368534
  },
  {
    "name": "汕樟路36号步道",
    "address": "汕樟路36号",
    "real_address": "金平区",
    "lng": 116.699956,
    "lat": 23.36991
  },
  {
    "name": "金平区文化艺术学校",
    "address": "中山路39号",
    "real_address": "金平区",
    "lng": 116.693057,
    "lat": 23.36486
  },
  {
    "name": "春杏路步道",
    "address": "春杏路5号至14号对面步道及堤围",
    "real_address": "汕头市金平区春杏路19号",
    "lng": 116.693488,
    "lat": 23.366962
  },
  {
    "name": "爱华中学",
    "address": "花园路左旁12号",
    "real_address": "广东省汕头市金平区",
    "lng": 116.693753,
    "lat": 23.364146
  },
  {
    "name": "红亭",
    "address": "博爱路49号",
    "real_address": "金平区",
    "lng": 116.690919,
    "lat": 23.362264
  },
  {
    "name": "外马路第四小学",
    "address": "联兴里左巷1号",
    "real_address": "金平区",
    "lng": 116.696569,
    "lat": 23.361476
  },
  {
    "name": "集成社区居委会",
    "address": "集成社区居委会",
    "real_address": "广东省汕头市金平区大华路27号",
    "lng": 116.697951,
    "lat": 23.3624
  },
  {
    "name": "东华社区党群服务中心前",
    "address": "东龙路6号(东龙里2号、3号区间道)",
    "real_address": "广东省汕头市金平区",
    "lng": 116.713518,
    "lat": 23.370015
  },
  {
    "name": "飞厦中学",
    "address": "长平路59号",
    "real_address": "金平区",
    "lng": 116.715254,
    "lat": 23.368177
  },
  {
    "name": "锦逸荣庭金砂路出入口",
    "address": "金砂路66号",
    "real_address": "金平区",
    "lng": 116.714975,
    "lat": 23.371461
  },
  {
    "name": "龙华社区党群服务中心新址旁",
    "address": "龙眼园南区7栋东面",
    "real_address": "广东省汕头市金平区龙眼南路龙眼园南区7栋113室",
    "lng": 116.717807,
    "lat": 23.369622
  },
  {
    "name": "366广场锦江之星酒店门口",
    "address": "金环南路20号",
    "real_address": "金平区",
    "lng": 116.722306,
    "lat": 23.3686
  },
  {
    "name": "榕松社区卫生服务站前",
    "address": "松园30栋",
    "real_address": "广东省汕头市金平区东方公园飞厦老二手槌牛肉丸(总店)",
    "lng": 116.714867,
    "lat": 23.365588
  },
  {
    "name": "飞厦小学",
    "address": "金平区龙眼南路48号",
    "real_address": "金平区",
    "lng": 116.717077,
    "lat": 23.366386
  },
  {
    "name": "中侨园停车场",
    "address": "桂园23栋103门前",
    "real_address": "广东省汕头市金平区桂园23栋",
    "lng": 116.71807,
    "lat": 23.366608
  },
  {
    "name": "浔洄新村核酸点",
    "address": "龙眼南路22号B栋门口",
    "real_address": "广东省汕头市金平区",
    "lng": 116.717239,
    "lat": 23.368231
  },
  {
    "name": "金苑社区党群服务中心前",
    "address": "东方园南区17栋",
    "real_address": "汕头市金平区东方园南区17栋",
    "lng": 116.720088,
    "lat": 23.36367
  },
  {
    "name": "东方小学",
    "address": "公信路中段东方园北区26座",
    "real_address": "公信路中段东方园北区26座汕头市东方小学附近",
    "lng": 116.721403,
    "lat": 23.366043
  },
  {
    "name": "东方公园",
    "address": "中山路122号东面",
    "real_address": "广东省汕头市金平区",
    "lng": 116.689833,
    "lat": 23.364453
  },
  {
    "name": "金园实验中学",
    "address": "汕头市金平区龙眼路16号",
    "real_address": "广东省汕头市金平区龙眼路16号",
    "lng": 116.717006,
    "lat": 23.36136
  },
  {
    "name": "聿怀中学",
    "address": "金平区海滨路33号",
    "real_address": "金平区",
    "lng": 116.714365,
    "lat": 23.358249
  },
  {
    "name": "农科所前",
    "address": "东方街道中山路146号",
    "real_address": "金平区",
    "lng": 116.721219,
    "lat": 23.362994
  },
  {
    "name": "银海街临时公园前",
    "address": "银海街临时公园",
    "real_address": "汕头市金平区国平路",
    "lng": 116.680419,
    "lat": 23.36115
  },
  {
    "name": "新乡文体广场",
    "address": "新乡文体广场",
    "real_address": "汕头市金平区新岐路欢苗幼儿园南侧约40米",
    "lng": 116.687981,
    "lat": 23.380111
  },
  {
    "name": "新乡小学",
    "address": "金湖路",
    "real_address": "广东省汕头市金平区",
    "lng": 116.720142,
    "lat": 23.379545
  },
  {
    "name": "杏花二小",
    "address": "杏花街31号",
    "real_address": "金平区",
    "lng": 116.689643,
    "lat": 23.375309
  },
  {
    "name": "潮汕路17号长线局",
    "address": "潮汕路17号",
    "real_address": "金平区",
    "lng": 116.687011,
    "lat": 23.375931
  },
  {
    "name": "万达广场门前",
    "address": "潮汕路61号",
    "real_address": "金平区",
    "lng": 116.688925,
    "lat": 23.3875
  },
  {
    "name": "电池厂前",
    "address": "大学路8号",
    "real_address": "金平区",
    "lng": 116.683984,
    "lat": 23.384233
  },
  {
    "name": "滨江假日酒店停车场",
    "address": "护堤路8号",
    "real_address": "金平区",
    "lng": 116.692114,
    "lat": 23.3738
  },
  {
    "name": "塑胶实业",
    "address": "护堤路12号",
    "real_address": "金平区",
    "lng": 116.692895,
    "lat": 23.375301
  },
  {
    "name": "滨江熙岸",
    "address": "护提路10号",
    "real_address": "金平区",
    "lng": 116.691718,
    "lat": 23.37477
  },
  {
    "name": "小商品市场",
    "address": "杏花社区杏花西路",
    "real_address": "广东省汕头市金平区",
    "lng": 116.687854,
    "lat": 23.372042
  },
  {
    "name": "汕头二中初中部",
    "address": "电视塔旁路",
    "real_address": "广东省汕头金平区潮汕路48号(潮汕路和金湖西路交界处)",
    "lng": 116.684363,
    "lat": 23.381643
  },
  {
    "name": "十一中",
    "address": "光华路106号",
    "real_address": "广东省汕头市金平区光华路105~106号",
    "lng": 116.680747,
    "lat": 23.375784
  },
  {
    "name": "茶博园",
    "address": "新厦岭路",
    "real_address": "广东省汕头市金平区",
    "lng": 116.682386,
    "lat": 23.374048
  },
  {
    "name": "光华小学",
    "address": "厦岭路42号",
    "real_address": "金平区",
    "lng": 116.682259,
    "lat": 23.374397
  },
  {
    "name": "同平中学",
    "address": "二马路田下巷",
    "real_address": "广东省汕头市金平区",
    "lng": 116.679639,
    "lat": 23.367669
  },
  {
    "name": "光华桥下康园前",
    "address": "同济直路尾",
    "real_address": "广东省汕头市金平区",
    "lng": 116.678908,
    "lat": 23.366045
  },
  {
    "name": "浮东小学",
    "address": "珠峰路15号",
    "real_address": "金平区",
    "lng": 116.717634,
    "lat": 23.405252
  },
  {
    "name": "嘉顿西区19幢架空层",
    "address": "嘉顿西区19幢架空层",
    "real_address": "汕头市金平区浮东东园街中信嘉顿小镇-西区",
    "lng": 116.719886,
    "lat": 23.40505
  },
  {
    "name": "桂花小学东裕校区",
    "address": "东桐街尾(东裕园旁)",
    "real_address": "广东省汕头市金平区金新北路236号",
    "lng": 116.718622,
    "lat": 23.402293
  },
  {
    "name": "端然学校",
    "address": "汕樟北路梅溪桥路对面",
    "real_address": "广东省汕头市金平区",
    "lng": 116.705944,
    "lat": 23.404211
  },
  {
    "name": "浮西经联社",
    "address": "金橡苑12栋(天山路)",
    "real_address": "汕头市金平区龙光金禧花园金橡苑12栋",
    "lng": 116.71581,
    "lat": 23.400435
  },
  {
    "name": "金禧会所",
    "address": "金禧花园金桦苑一栋楼下",
    "real_address": "广东省汕头市金平区华山路98号",
    "lng": 116.714602,
    "lat": 23.398311
  },
  {
    "name": "浮西小学",
    "address": "金禧花园金枫苑旁边",
    "real_address": "汕头市金平区金禧二街龙光金禧花园",
    "lng": 116.713572,
    "lat": 23.398704
  },
  {
    "name": "浮西幼儿园",
    "address": "浮西西隆路中段",
    "real_address": "汕头市金平区广厦街道浮西村西隆路中段",
    "lng": 116.712543,
    "lat": 23.401612
  },
  {
    "name": "金禧中学",
    "address": "天山北路东霞街金桐苑旁边",
    "real_address": "汕头市金平区金桐苑8幢",
    "lng": 116.716355,
    "lat": 23.402267
  },
  {
    "name": "红荔园一期老年人活动中心",
    "address": "红荔园一期老年人活动中心",
    "real_address": "汕头市金平区广厦街28号",
    "lng": 116.720179,
    "lat": 23.40024
  },
  {
    "name": "东厦二期11栋架空层",
    "address": "东厦花园二期会所前",
    "real_address": "东厦路90号",
    "lng": 116.711286,
    "lat": 23.379102
  },
  {
    "name": "金榕苑4栋架空层",
    "address": "金榕苑4栋架空层",
    "real_address": "广东省汕头市金平区广厦街道金新北路龙光金禧花园金榕苑",
    "lng": 116.715916,
    "lat": 23.398681
  },
  {
    "name": "金荷中学",
    "address": "荷花园22栋",
    "real_address": "广东省汕头市金平区荷花园22栋",
    "lng": 116.716921,
    "lat": 23.395067
  },
  {
    "name": "荷花居委会旁",
    "address": "荷花园8幢对面",
    "real_address": "汕头市金平区华山北路66号",
    "lng": 116.716284,
    "lat": 23.395625
  },
  {
    "name": "桂花小学",
    "address": "桂花小学",
    "real_address": "广东省汕头市金平区东厦北路广厦新城桂花园1幢",
    "lng": 116.719702,
    "lat": 23.39629
  },
  {
    "name": "桂花园10栋架空层",
    "address": "桂花园10栋架空层",
    "real_address": "广东省汕头市金平区广厦新城桂花园(天山北路南)",
    "lng": 116.720315,
    "lat": 23.397441
  },
  {
    "name": "东厦花园会所",
    "address": "东厦北路东厦花园一区",
    "real_address": "广东省汕头市金平区东厦北路与天山北路交叉口南侧",
    "lng": 116.723583,
    "lat": 23.396205
  },
  {
    "name": "星汇国际一期3幢架空层",
    "address": "星汇国际一期3幢架空层",
    "real_address": "广东省汕头市金平区东厦北路175号",
    "lng": 116.720695,
    "lat": 23.39388
  },
  {
    "name": "聿怀初级中学",
    "address": "天山北路与春江路交界",
    "real_address": "汕头市金平区春江路",
    "lng": 116.725262,
    "lat": 23.395706
  },
  {
    "name": "珠厦学校",
    "address": "珠峰路南路中段",
    "real_address": "广东省汕头市金平区",
    "lng": 116.722025,
    "lat": 23.40048
  },
  {
    "name": "天华美地会所",
    "address": "天华美地会所",
    "real_address": "汕头市金平区春江路1号",
    "lng": 116.729119,
    "lat": 23.398866
  },
  {
    "name": "蓝天花园园内广场",
    "address": "蓝天花园9栋楼下",
    "real_address": "广东省汕头市金平区汕汾路与珠峰南路交叉口西北100米",
    "lng": 116.729639,
    "lat": 23.396905
  },
  {
    "name": "雅仕园",
    "address": "雅仕园2栋楼下",
    "real_address": "汕头市金平区雅仕园2号楼",
    "lng": 116.727821,
    "lat": 23.394673
  },
  {
    "name": "杜鹃小学",
    "address": "杜鹃园21栋",
    "real_address": "汕头市金平区杜鹃园21号楼",
    "lng": 116.724632,
    "lat": 23.402508
  },
  {
    "name": "金禧中学天竺校区",
    "address": "天竺园1栋",
    "real_address": "广东省汕头市金平区天竺园1栋108号",
    "lng": 116.722239,
    "lat": 23.403583
  },
  {
    "name": "景天园10栋架空层",
    "address": "景天园10栋架空层",
    "real_address": "汕头市金平区广厦新城景天园20栋",
    "lng": 116.723589,
    "lat": 23.401835
  },
  {
    "name": "东厦100广场",
    "address": "东厦100购物商城广场三楼外平台",
    "real_address": "广东省汕头市金平区东厦路100号",
    "lng": 116.71047,
    "lat": 23.384838
  },
  {
    "name": "汕职院东墩校区",
    "address": "汕职院东墩校区",
    "real_address": "广东省汕头市金平区蛇针路8号",
    "lng": 116.70762,
    "lat": 23.385028
  },
  {
    "name": "桃园社区",
    "address": "桃园4幢后与停车场+nh",
    "real_address": "汕头市金平区桃园4栋",
    "lng": 116.715379,
    "lat": 23.38637
  },
  {
    "name": "东厦运动场",
    "address": "玉兰园与芙蓉园交界处",
    "real_address": "汕头市金平区百花路与百花东巷交叉路口往东约100米(水仙园西侧约50米)",
    "lng": 116.716428,
    "lat": 23.38097
  },
  {
    "name": "石榴园社区",
    "address": "石榴园38栋与39栋之间",
    "real_address": "广东省汕头市金平区月季园金凤路石榴园",
    "lng": 116.712544,
    "lat": 23.384518
  },
  {
    "name": "深源美庭",
    "address": "深源美庭小区门口",
    "real_address": "汕头市金平区金湖路115号",
    "lng": 116.712987,
    "lat": 23.380722
  },
  {
    "name": "水仙小学",
    "address": "水仙园20-21幢之间",
    "real_address": "广东省汕头市金平区金环路81号",
    "lng": 116.718584,
    "lat": 23.380649
  },
  {
    "name": "海棠中学",
    "address": "海棠中学内(海棠园4栋))",
    "real_address": "广东省汕头市金平区百花路芙蓉园4栋",
    "lng": 116.717059,
    "lat": 23.382472
  },
  {
    "name": "月季小学",
    "address": "月季小学门口(月季园21栋)",
    "real_address": "广东省汕头市金平区百花路月季园23栋",
    "lng": 116.714481,
    "lat": 23.383921
  },
  {
    "name": "东墩综合市场二楼平台",
    "address": "汕樟路168号东墩综合市场二楼平台",
    "real_address": "广东省汕头市金平区汕樟路168号",
    "lng": 116.705515,
    "lat": 23.390084
  },
  {
    "name": "北华路",
    "address": "君潮酒店与香樟美地花园交界处",
    "real_address": "广东省汕头市金平区汕樟路128号汕樟路与金凤路交界处西南角",
    "lng": 116.702357,
    "lat": 23.387331
  },
  {
    "name": "杏园社区",
    "address": "杏园西17-19栋中间空地",
    "real_address": "汕头市金平区金园路金园路32,34住宅小区东侧约50米",
    "lng": 116.717557,
    "lat": 23.375808
  },
  {
    "name": "杏园东社区",
    "address": "杏园东社区居委会门口",
    "real_address": "广东省汕头市金平区杏园街13号3座东侧",
    "lng": 116.720474,
    "lat": 23.374816
  },
  {
    "name": "汇悦春天大门前",
    "address": "凤凰山路36号汇悦春天一区花园大门前",
    "real_address": "广东省汕头市金平区凤凰山路",
    "lng": 116.710858,
    "lat": 23.393331
  },
  {
    "name": "联泰展厅停车场",
    "address": "东厦北路126号联泰展厅停车场",
    "real_address": "广东省汕头市金平区东厦北路126号",
    "lng": 116.716152,
    "lat": 23.390477
  },
  {
    "name": "龙北门球场",
    "address": "福兴街13号",
    "real_address": "金平区",
    "lng": 116.715083,
    "lat": 23.374074
  },
  {
    "name": "东福社区",
    "address": "金厦文体广场(东福横巷4号旁)",
    "real_address": "汕头市金平区东兴巷三横东福大院北侧约30米",
    "lng": 116.714083,
    "lat": 23.375031
  },
  {
    "name": "百合广场",
    "address": "百合花园内",
    "real_address": "汕头市金平区金园路29号",
    "lng": 116.71585,
    "lat": 23.376926
  },
  {
    "name": "玫瑰园社区",
    "address": "玫瑰园49栋空地",
    "real_address": "汕头市金平区金环路68号",
    "lng": 116.718638,
    "lat": 23.378278
  },
  {
    "name": "牡丹花园",
    "address": "牡丹园18栋旁",
    "real_address": "汕头市金平区牡丹园18栋",
    "lng": 116.7159,
    "lat": 23.378347
  },
  {
    "name": "南墩经联社前停车场",
    "address": "东安二路8号",
    "real_address": "金平区",
    "lng": 116.709981,
    "lat": 23.388445
  },
  {
    "name": "南墩小学",
    "address": "东湖路1号",
    "real_address": "金平区",
    "lng": 116.709568,
    "lat": 23.387823
  },
  {
    "name": "汇翠小学",
    "address": "汇翠小学操场",
    "real_address": "广东省汕头市金平区华山北路汇翠时代花园南区",
    "lng": 116.721107,
    "lat": 23.387671
  },
  {
    "name": "汇翠时代花园北区",
    "address": "汇翠时代花园北区",
    "real_address": "华山北路88号",
    "lng": 116.720978,
    "lat": 23.389192
  },
  {
    "name": "金园路品牌一条街",
    "address": "金园路24号",
    "real_address": "金平区",
    "lng": 116.714356,
    "lat": 23.375467
  },
  {
    "name": "东厦中学北校区",
    "address": "金湖路126号",
    "real_address": "金平区",
    "lng": 116.71043,
    "lat": 23.380128
  },
  {
    "name": "技工学校(二技)",
    "address": "新美路2号",
    "real_address": "金平区",
    "lng": 116.707214,
    "lat": 23.373659
  },
  {
    "name": "汕樟中学",
    "address": "汕樟路81号",
    "real_address": "广东省汕头市金平区汕樟路81号",
    "lng": 116.70149,
    "lat": 23.376694
  },
  {
    "name": "金韩路17号",
    "address": "金韩路17号",
    "real_address": "金平区",
    "lng": 116.697881,
    "lat": 23.377291
  },
  {
    "name": "北门神树下消防站",
    "address": "东门大路西座三巷48号",
    "real_address": "汕头市金平区东门大路西三巷15号1座",
    "lng": 116.705713,
    "lat": 23.376834
  },
  {
    "name": "金砂小学(金华校区)",
    "address": "金华街11号",
    "real_address": "金平区",
    "lng": 116.697773,
    "lat": 23.373145
  },
  {
    "name": "金砂二小",
    "address": "明烟路一横",
    "real_address": "广东省汕头市金平区",
    "lng": 116.702831,
    "lat": 23.376553
  },
  {
    "name": "金陵路北段与金砂路交界处",
    "address": "金陵路北段与金砂路交界处",
    "real_address": "广东省汕头市金平区",
    "lng": 116.703583,
    "lat": 23.372964
  },
  {
    "name": "金新花园",
    "address": "新厦路12号",
    "real_address": "金平区",
    "lng": 116.709882,
    "lat": 23.372971
  },
  {
    "name": "金紫世家门口金紫天街",
    "address": "金湖路95号",
    "real_address": "金平区",
    "lng": 116.706945,
    "lat": 23.380949
  },
  {
    "name": "东厦小学金紫校区",
    "address": "金紫路8号",
    "real_address": "金平区",
    "lng": 116.705579,
    "lat": 23.382665
  },
  {
    "name": "金樟幼儿园",
    "address": "汕樟路86号",
    "real_address": "广东省汕头市",
    "lng": 116.70119,
    "lat": 23.378067
  },
  {
    "name": "大窖池头广场",
    "address": "护堤路大窖池头广场",
    "real_address": "广东省汕头市金平区护堤路45号",
    "lng": 116.695536,
    "lat": 23.381842
  },
  {
    "name": "大窖小学",
    "address": "金湖路49号",
    "real_address": "金平区",
    "lng": 116.692841,
    "lat": 23.381056
  },
  {
    "name": "桂香园小区",
    "address": "潮护路31号",
    "real_address": "金平区",
    "lng": 116.69135,
    "lat": 23.384506
  },
  {
    "name": "西陇文体广场",
    "address": "西陇文体广场",
    "real_address": "汕头市金平区东兴巷三横东福大院北侧约30米",
    "lng": 116.714083,
    "lat": 23.375031
  },
  {
    "name": "陇头综合楼停车场",
    "address": "陇头综合楼停车场",
    "real_address": "汕头市金平区",
    "lng": 116.705844,
    "lat": 23.408024
  },
  {
    "name": "马西文体广场",
    "address": "马西文体广场",
    "real_address": "汕头市金平区新岐路欢苗幼儿园南侧约40米",
    "lng": 116.687981,
    "lat": 23.380111
  },
  {
    "name": "大路文化广场",
    "address": "大路文化广场",
    "real_address": "广东省汕头市金平区海滨路海港服装城档口(尚影)",
    "lng": 116.689706,
    "lat": 23.357769
  },
  {
    "name": "沟湖文化广场",
    "address": "沟湖文化广场",
    "real_address": "汕头市金平区沟湖街金岐幼儿园东北侧约190米",
    "lng": 116.700122,
    "lat": 23.396882
  },
  {
    "name": "中宫篮球场",
    "address": "中宫居委会前",
    "real_address": "广东省汕头市金平区岐山街道中宫社区龙宫前三巷8号",
    "lng": 116.695599,
    "lat": 23.396649
  },
  {
    "name": "寨头居委前篮球场",
    "address": "寨头居委会前",
    "real_address": "汕头市金平区金砂路50号金平区政府办公楼6楼",
    "lng": 116.71016,
    "lat": 23.371562
  },
  {
    "name": "南楼敬老室",
    "address": "南楼社区庙前街",
    "real_address": "岐山路与潮汕路交叉口东50米",
    "lng": 116.690149,
    "lat": 23.397317
  },
  {
    "name": "爱心学校",
    "address": "下岐路16号",
    "real_address": "金平区",
    "lng": 116.69312,
    "lat": 23.392251
  },
  {
    "name": "下岐报本老年人活动中心",
    "address": "西兰街9号大厅",
    "real_address": "广东省汕头市金平区",
    "lng": 116.693222,
    "lat": 23.388863
  },
  {
    "name": "大学路北郊周转房",
    "address": "大学路北郊周转房",
    "real_address": "广东省汕头市金平区大学路北郊周转房内(路口拐入10米处停车场)",
    "lng": 116.681177,
    "lat": 23.389217
  },
  {
    "name": "新时代文明实践主题公园",
    "address": "西陇南一街",
    "real_address": "广东省汕头市金平区",
    "lng": 116.700496,
    "lat": 23.412923
  },
  {
    "name": "中心小学",
    "address": "岐山路27号",
    "real_address": "金平区",
    "lng": 116.693928,
    "lat": 23.396248
  },
  {
    "name": "寨头公园",
    "address": "寨头北8巷1号旁",
    "real_address": "广东省汕头市金平区寨头北八巷6号",
    "lng": 116.69693,
    "lat": 23.400316
  },
  {
    "name": "南楼文化广场",
    "address": "南楼南新中巷",
    "real_address": "东厦北路中信东厦花园2期天山北路0304",
    "lng": 116.719398,
    "lat": 23.398228
  },
  {
    "name": "阳光学校",
    "address": "下岐路37号",
    "real_address": "金平区",
    "lng": 116.69585,
    "lat": 23.390858
  },
  {
    "name": "东楼市场停车场",
    "address": "东楼市场",
    "real_address": "汕头市金平区窖仔4巷1号",
    "lng": 116.696817,
    "lat": 23.393677
  },
  {
    "name": "报本小学报本堂",
    "address": "报本路报本小学",
    "real_address": "广东省汕头市金平区岐山街道下岐社区报本路1号",
    "lng": 116.689113,
    "lat": 23.391298
  },
  {
    "name": "培苗小学",
    "address": "厦园街与木薯路交叉口南150米",
    "real_address": "广东省汕头市金平区",
    "lng": 116.68796,
    "lat": 23.389525
  },
  {
    "name": "狮子城美食街",
    "address": "金凤东路欧美",
    "real_address": "广东省汕头市金平区",
    "lng": 116.711389,
    "lat": 23.385307
  },
  {
    "name": "石炮台街道康园中心",
    "address": "新陵路4号停车场",
    "real_address": "汕头市金平区新陵路汕头大学-医学院东南侧约30米",
    "lng": 116.703966,
    "lat": 23.360529
  },
  {
    "name": "石炮台公园",
    "address": "海滨路20号",
    "real_address": "金平区",
    "lng": 116.705651,
    "lat": 23.357014
  },
  {
    "name": "华新小学",
    "address": "华侨新村东区18号",
    "real_address": "广东省汕头市金平区汕樟路华侨新村东区18号",
    "lng": 116.702316,
    "lat": 23.370648
  },
  {
    "name": "汕头市第一中学",
    "address": "中山路79号",
    "real_address": "金平区",
    "lng": 116.701986,
    "lat": 23.364669
  },
  {
    "name": "华侨新村路步行街",
    "address": "华侨新村路步行街",
    "real_address": "广东省汕头市金平区",
    "lng": 116.703623,
    "lat": 23.369876
  },
  {
    "name": "汕头市体育运动学校",
    "address": "长平路18号",
    "real_address": "金平区",
    "lng": 116.705947,
    "lat": 23.367273
  },
  {
    "name": "科委宿舍大院内",
    "address": "金陵路3号科委宿舍大院内",
    "real_address": "汕头市金平区金陵路3号",
    "lng": 116.703784,
    "lat": 23.369374
  },
  {
    "name": "长厦经联社大院内",
    "address": "长厦经联社大院内",
    "real_address": "广东省汕头市金平区东安二路9号",
    "lng": 116.70992,
    "lat": 23.388489
  },
  {
    "name": "汕头市东厦小学(北校区)",
    "address": "东厦路42号",
    "real_address": "金平区",
    "lng": 116.711831,
    "lat": 23.366153
  },
  {
    "name": "汕头市东厦小学(南校区)",
    "address": "东厦路28号",
    "real_address": "金平区",
    "lng": 116.711804,
    "lat": 23.362562
  },
  {
    "name": "滨厦园滨厦居委楼下",
    "address": "滨厦园15幢后旁",
    "real_address": "汕头市金平区滨厦园15栋",
    "lng": 116.709794,
    "lat": 23.363533
  },
  {
    "name": "南方开关厂",
    "address": "南方开关厂",
    "real_address": "广东省汕头市金平区金砂街道金丰路3号",
    "lng": 116.699068,
    "lat": 23.384975
  },
  {
    "name": "汕头市聋哑学校",
    "address": "陵海一巷1号",
    "real_address": "广东省汕头市金平区陵海路1巷1号",
    "lng": 116.704295,
    "lat": 23.36114
  },
  {
    "name": "长厦小学",
    "address": "金府旁路11号",
    "real_address": "金平区",
    "lng": 116.709684,
    "lat": 23.369678
  },
  {
    "name": "平东旧居委址旁空地",
    "address": "平东二街2号102旁",
    "real_address": "金平区",
    "lng": 116.710708,
    "lat": 23.36826
  },
  {
    "name": "金平区环保局",
    "address": "长平路45号与47号之间",
    "real_address": "广东省汕头市金平区长平路9号",
    "lng": 116.702624,
    "lat": 23.36787
  },
  {
    "name": "汕头经济特区华都宾馆停车场",
    "address": "金砂路44号",
    "real_address": "金平区",
    "lng": 116.708112,
    "lat": 23.371436
  },
  {
    "name": "云露社区",
    "address": "长荣路102号云露文化广场",
    "real_address": "广东省汕头市金平区长荣路102号",
    "lng": 116.652445,
    "lat": 23.409411
  },
  {
    "name": "木坑社区",
    "address": "泰丰路鮀东学校东侧约40米木坑文化广场",
    "real_address": "汕头市金平区泰丰路鮀东学校东侧约40米",
    "lng": 116.653468,
    "lat": 23.403951
  },
  {
    "name": "夏趾社区",
    "address": "夏趾路康乐广场",
    "real_address": "广东省汕头市金平区",
    "lng": 116.64973,
    "lat": 23.402304
  },
  {
    "name": "桥头文化广场",
    "address": "桥升街69号文化广场",
    "real_address": "广东省汕头市金平区桥升街69号",
    "lng": 116.662146,
    "lat": 23.403388
  },
  {
    "name": "蓬洲东社区",
    "address": "蓬洲农贸市场前门",
    "real_address": "广东省汕头市金平区鮀中路30号",
    "lng": 116.663727,
    "lat": 23.411123
  },
  {
    "name": "蓬洲南社区",
    "address": "蓬洲文化广场(西南区)",
    "real_address": "岩前路38号东南方向150米",
    "lng": 116.657068,
    "lat": 23.417841
  },
  {
    "name": "蓬洲西社区",
    "address": "蓬洲文化广场(东北区)",
    "real_address": "岩前路38号东南方向150米",
    "lng": 116.657068,
    "lat": 23.417841
  },
  {
    "name": "蓬洲北社区",
    "address": "蓬洲大街123号",
    "real_address": "金平区",
    "lng": 116.662451,
    "lat": 23.416818
  },
  {
    "name": "溪东社区",
    "address": "新校路溪东小学",
    "real_address": "汕头市金平区鮀江街道溪东居委新校路中段3号",
    "lng": 116.663417,
    "lat": 23.408827
  },
  {
    "name": "金陇社区",
    "address": "金陇宫前金陇文化广场",
    "real_address": "汕头市金平区金业路爱贝儿艺术幼儿园东南侧约180米",
    "lng": 116.666511,
    "lat": 23.412978
  },
  {
    "name": "山兜社区",
    "address": "山兜社区西街与南路交界处",
    "real_address": "广东省汕头市金平区山兜社区南路与西街交界处",
    "lng": 116.674258,
    "lat": 23.428361
  },
  {
    "name": "举登社区",
    "address": "金平区大北巷文体广场",
    "real_address": "汕头市金平区新岐路欢苗幼儿园南侧约40米",
    "lng": 116.687981,
    "lat": 23.380111
  },
  {
    "name": "鮀都天天平价",
    "address": "鮀中路6号天天平价门前",
    "real_address": "汕头市金平区鮀中路6号2栋101-103号",
    "lng": 116.660902,
    "lat": 23.408994
  },
  {
    "name": "鮀都蓬溪苑",
    "address": "大学路223号蓬溪苑入口蓬溪苑路",
    "real_address": "汕头市金平区大学路223号",
    "lng": 116.656969,
    "lat": 23.412334
  },
  {
    "name": "乐业社区",
    "address": "升业路16号乐业苑11幢首层乐业健身小广场",
    "real_address": "广东省汕头市金平区升业路16号",
    "lng": 116.669809,
    "lat": 23.404503
  },
  {
    "name": "安居长贵苑",
    "address": "长贵苑一区",
    "real_address": "汕头市金平区长富路汕头新城",
    "lng": 116.670348,
    "lat": 23.391439
  },
  {
    "name": "安居长兴苑",
    "address": "长兴苑7栋一楼",
    "real_address": "汕头市金平区安居路40号",
    "lng": 116.669675,
    "lat": 23.387631
  },
  {
    "name": "安居幼儿园",
    "address": "长贵中街与长贵西街交界(安居幼儿园对面)",
    "real_address": "汕头市金平区安居路",
    "lng": 116.671117,
    "lat": 23.390446
  },
  {
    "name": "安居安居路",
    "address": "安居北路与安居路交界(整点烧烤门前",
    "real_address": "广东省汕头市金平区",
    "lng": 116.671219,
    "lat": 23.384168
  },
  {
    "name": "龙腾嘉园北区",
    "address": "龙腾嘉园北区19栋一楼广场",
    "real_address": "广东省汕头市金平区安居西路1号",
    "lng": 116.661213,
    "lat": 23.390875
  },
  {
    "name": "龙腾嘉园南区",
    "address": "龙腾嘉园南区21栋-22栋大门前广场",
    "real_address": "汕头市金平区龙腾嘉园16栋",
    "lng": 116.660855,
    "lat": 23.390877
  },
  {
    "name": "红树湾一二期",
    "address": "红树湾一期南北区间步行街",
    "real_address": "广东省汕头市金平区长富路20号",
    "lng": 116.6662,
    "lat": 23.390941
  },
  {
    "name": "潮馨园教师公寓",
    "address": "大学路潮馨园工作站",
    "real_address": "汕头市金平区大学路129号",
    "lng": 116.665128,
    "lat": 23.40041
  },
  {
    "name": "玉梅公园",
    "address": "玉梅公园",
    "real_address": "汕头市金平区国平路",
    "lng": 116.680419,
    "lat": 23.36115
  },
  {
    "name": "中心老人居",
    "address": "中心老人居",
    "real_address": "广东省汕头市金平区汕樟路79号1-5楼",
    "lng": 116.701172,
    "lat": 23.376055
  },
  {
    "name": "玉井小学",
    "address": "玉中路215号",
    "real_address": "金平区",
    "lng": 116.645554,
    "lat": 23.38886
  },
  {
    "name": "蔡厝祠堂",
    "address": "玉清路56号",
    "real_address": "汕头市金平区金砂路50号3楼",
    "lng": 116.71016,
    "lat": 23.371562
  },
  {
    "name": "大井社区篮球场",
    "address": "大井社区塭仔中路1号旁篮球场",
    "real_address": "广东省汕头市金平区大井社区塭仔中路1号",
    "lng": 116.641214,
    "lat": 23.382126
  },
  {
    "name": "天港社区综合文化服务中心",
    "address": "中二街80号",
    "real_address": "金平区",
    "lng": 116.634254,
    "lat": 23.386057
  },
  {
    "name": "天港市场",
    "address": "塭仔二街1号",
    "real_address": "广东省汕头市金平区",
    "lng": 116.697606,
    "lat": 23.391919
  },
  {
    "name": "大场社区西洲路贩头外公园",
    "address": "大场社区西洲路贩头外公园",
    "real_address": "汕头市金平区国平路",
    "lng": 116.680419,
    "lat": 23.36115
  },
  {
    "name": "大场社区北畔祠",
    "address": "大场社区金场北街15号",
    "real_address": "汕头市金平区大池街大场小学西北侧约290米",
    "lng": 116.630313,
    "lat": 23.395463
  },
  {
    "name": "福园路尾变电站旁",
    "address": "福园路尾",
    "real_address": "广东省汕头市金平区",
    "lng": 116.632648,
    "lat": 23.400809
  },
  {
    "name": "赖厝社区综合文化活动中心",
    "address": "赖厝社区泊仔街东侧31号",
    "real_address": "广东省汕头市金平区泊仔街31号",
    "lng": 116.637351,
    "lat": 23.399339
  },
  {
    "name": "大井学校篮球场",
    "address": "大井学校篮球场",
    "real_address": "广东省汕头市金平区玉港路143号",
    "lng": 116.644028,
    "lat": 23.384195
  },
  {
    "name": "大场小学",
    "address": "金平区鮀莲街道大场小学",
    "real_address": "汕头市金平区金场北街附近",
    "lng": 116.633454,
    "lat": 23.393803
  },
  {
    "name": "莲荣社区居委会",
    "address": "莲荣居委址内停车场",
    "real_address": "广东省汕头市金平区同平路50号",
    "lng": 116.679945,
    "lat": 23.361147
  },
  {
    "name": "莲华社区莲塘文化活动中心",
    "address": "莲塘文化活动中心",
    "real_address": "汕头市金平区二零六国道",
    "lng": 116.60683,
    "lat": 23.42774
  },
  {
    "name": "莲光社区莲塘路109号采样点",
    "address": "莲光社区莲塘路109号",
    "real_address": "金平区",
    "lng": 116.600783,
    "lat": 23.420043
  },
  {
    "name": "莲美牛山头公园",
    "address": "莲美社区北美路57号",
    "real_address": "汕头市金平区汕头市金平区鮀莲东之阳幼儿园西南侧约290米",
    "lng": 116.607293,
    "lat": 23.416269
  },
  {
    "name": "鮀莲街道新时代文明实践站",
    "address": "金平区美新三横巷1号",
    "real_address": "金平区",
    "lng": 116.596561,
    "lat": 23.426692
  },
  {
    "name": "原福岛小学采样点",
    "address": "福岛坑西北五巷1号",
    "real_address": "广东省汕头市金平区大窖乡北五横巷1号",
    "lng": 116.694619,
    "lat": 23.384617
  },
  {
    "name": "新隆社区书院门口",
    "address": "新隆街2号",
    "real_address": "广东省汕头市金平区福兴街11号3座",
    "lng": 116.714729,
    "lat": 23.374231
  },
  {
    "name": "存心特教学校",
    "address": "福平路65号",
    "real_address": "金平区",
    "lng": 116.683059,
    "lat": 23.362164
  },
  {
    "name": "外马三小检测点",
    "address": "外马路129号",
    "real_address": "金平区",
    "lng": 116.685439,
    "lat": 23.361882
  },
  {
    "name": "金兴苑",
    "address": "金兴苑民族幼儿园前面",
    "real_address": "汕头市金平区中山路3号",
    "lng": 116.684147,
    "lat": 23.36495
  },
  {
    "name": "第六中学",
    "address": "同益路32号",
    "real_address": "金平区",
    "lng": 116.688287,
    "lat": 23.365374
  },
  {
    "name": "民生路",
    "address": "民生路花园16幢楼下",
    "real_address": "广东省汕头市金平区",
    "lng": 116.688191,
    "lat": 23.362836
  },
  {
    "name": "正始中学",
    "address": "瑞平路13号",
    "real_address": "金平区",
    "lng": 116.685601,
    "lat": 23.366435
  },
  {
    "name": "海悦花园",
    "address": "海悦花园南区幼儿园门口",
    "real_address": "南海横路30号",
    "lng": 116.68534,
    "lat": 23.357282
  },
  {
    "name": "第十二中学",
    "address": "三牧楼巷9号",
    "real_address": "金平区",
    "lng": 116.684729,
    "lat": 23.359693
  },
  {
    "name": "友联中学",
    "address": "商业街13号",
    "real_address": "金平区",
    "lng": 116.686167,
    "lat": 23.359817
  },
  {
    "name": "十二中南校区",
    "address": "跃进路7号",
    "real_address": "金平区",
    "lng": 116.684253,
    "lat": 23.358216
  },
  {
    "name": "金港广场三区",
    "address": "金港广场三区广场",
    "real_address": "汕头市金平区海滨路金港广场-2区西南侧约110米",
    "lng": 116.680042,
    "lat": 23.355532
  },
  {
    "name": "镇邦小学",
    "address": "万安花园10幢",
    "real_address": "汕头市金平区永平路汕头老城",
    "lng": 116.678747,
    "lat": 23.358249
  },
  {
    "name": "民族路小学",
    "address": "福瑞苑3幢",
    "real_address": "广东省汕头市金平区民族路福瑞苑3幢",
    "lng": 116.681958,
    "lat": 23.365863
  },
  {
    "name": "寿山文体广场检测点",
    "address": "福平路135-137号区间",
    "real_address": "广东省汕头市金平区",
    "lng": 116.682938,
    "lat": 23.362272
  },
  {
    "name": "街道综合文化站检测点",
    "address": "新风左巷4号",
    "real_address": "金平区",
    "lng": 116.676519,
    "lat": 23.362488
  },
  {
    "name": "荣隆苑停车场检测点",
    "address": "荣隆苑12栋",
    "real_address": "汕头市金平区荣隆苑12栋",
    "lng": 116.675379,
    "lat": 23.361135
  },
  {
    "name": "五福小学",
    "address": "金山中街11号",
    "real_address": "金平区",
    "lng": 116.678064,
    "lat": 23.363126
  },
  {
    "name": "商平小学",
    "address": "商平路95号",
    "real_address": "金平区",
    "lng": 116.675872,
    "lat": 23.358515
  },
  {
    "name": "德志苑",
    "address": "德志苑4栋",
    "real_address": "汕头市金平区西堤路3号",
    "lng": 116.676092,
    "lat": 23.355193
  },
  {
    "name": "月浦社区居委会",
    "address": "月兰一巷25号",
    "real_address": "金平区",
    "lng": 116.693533,
    "lat": 23.424669
  },
  {
    "name": "月浦社区文体广场",
    "address": "金浦路与鳄浦路交界",
    "real_address": "广东省汕头市金平区",
    "lng": 116.623141,
    "lat": 23.416132
  },
  {
    "name": "绿康花木市场",
    "address": "揭阳路傍",
    "real_address": "广东省汕头市金平区",
    "lng": 116.69142,
    "lat": 23.419914
  },
  {
    "name": "月浦社区第八联社址",
    "address": "青年路与月津路交界",
    "real_address": "广东省汕头市金平区",
    "lng": 116.688237,
    "lat": 23.427117
  },
  {
    "name": "华新城文体广场",
    "address": "华新城文体广场",
    "real_address": "广东省汕头市金平区衡山路59号",
    "lng": 116.688709,
    "lat": 23.414116
  },
  {
    "name": "湖头中街文体广场",
    "address": "湖头中街24号",
    "real_address": "金平区",
    "lng": 116.68693,
    "lat": 23.442408
  },
  {
    "name": "沟南社区居委会",
    "address": "尚书街八巷一号",
    "real_address": "广东省汕头市金平区月浦街道沟南社区尚书街八巷1号",
    "lng": 116.682493,
    "lat": 23.433418
  },
  {
    "name": "汕头金平工业园区核酸采样点",
    "address": "金平区升业路与升业北路交叉口金平工业园区党群服务中心正门前",
    "real_address": "广东省汕头市金平区大学路91号",
    "lng": 116.672656,
    "lat": 23.396108
  },
  {
    "name": "金谷1",
    "address": "迎宾路城市驿站广场",
    "real_address": "广东省汕头市龙湖区",
    "lng": 116.723242,
    "lat": 23.374265
  },
  {
    "name": "金谷2",
    "address": "1981面向华山路停车场",
    "real_address": "汕头市龙湖区蓬岭路新发园南侧",
    "lng": 116.76305,
    "lat": 23.448322
  },
  {
    "name": "金珠1",
    "address": "金珠园17-19栋之间空地",
    "real_address": "汕头市龙湖区环碧庄金珠园19栋",
    "lng": 116.728979,
    "lat": 23.376557
  },
  {
    "name": "金珠2",
    "address": "金珠文体广场",
    "real_address": "广东省汕头市龙湖区长平路98号",
    "lng": 116.727525,
    "lat": 23.366473
  },
  {
    "name": "金兴2",
    "address": "榕汀路23号龙湖综合市场",
    "real_address": "龙湖区榕江路21号",
    "lng": 116.730031,
    "lat": 23.375268
  },
  {
    "name": "丹霞1",
    "address": "丹霞庄东区1-2栋区间路",
    "real_address": "汕头市龙湖区丹霞庄东区1栋",
    "lng": 116.730536,
    "lat": 23.370839
  },
  {
    "name": "丹霞2",
    "address": "丹霞庄中区28-30栋区间路",
    "real_address": "汕头市龙湖区丹霞庄中区28栋",
    "lng": 116.729389,
    "lat": 23.369374
  },
  {
    "name": "丹霞3",
    "address": "丹霞庄金霞少儿服务中心前面",
    "real_address": "汕头市龙湖区华山路15号",
    "lng": 116.72889,
    "lat": 23.368342
  },
  {
    "name": "丹苑1",
    "address": "金砂东和金环南交界处幸福园广场",
    "real_address": "广东省汕头市龙湖区金砂东路112号",
    "lng": 116.734945,
    "lat": 23.371855
  },
  {
    "name": "丹苑2",
    "address": "华银国际商业北广场",
    "real_address": "汕头市龙湖区金砂路106号",
    "lng": 116.728383,
    "lat": 23.371931
  },
  {
    "name": "碧霞1",
    "address": "碧霞书院",
    "real_address": "汕头市龙湖区碧霞北街与碧霞街交叉口西50米",
    "lng": 116.729878,
    "lat": 23.365954
  },
  {
    "name": "碧霞2",
    "address": "龙湖沟步道",
    "real_address": "汕头市龙湖区",
    "lng": 116.720041,
    "lat": 23.381796
  },
  {
    "name": "碧霞3",
    "address": "碧霞北街",
    "real_address": "广东省汕头市龙湖区",
    "lng": 116.731058,
    "lat": 23.366102
  },
  {
    "name": "金海1",
    "address": "海滨花园东区会所",
    "real_address": "汕头市龙湖区海滨花园东区26幢",
    "lng": 116.727938,
    "lat": 23.360417
  },
  {
    "name": "金海2",
    "address": "海滨花园西区会所",
    "real_address": "广东省汕头市龙湖区金霞街道金海社区中山路156号",
    "lng": 116.72644,
    "lat": 23.361534
  },
  {
    "name": "春湖1",
    "address": "南湖街41号",
    "real_address": "龙湖区",
    "lng": 116.731262,
    "lat": 23.379655
  },
  {
    "name": "春湖2",
    "address": "东湖街72号",
    "real_address": "龙湖区",
    "lng": 116.731082,
    "lat": 23.380509
  },
  {
    "name": "春湖3",
    "address": "龙湖街76号",
    "real_address": "龙湖区",
    "lng": 116.730291,
    "lat": 23.381073
  },
  {
    "name": "玉湖1",
    "address": "龙湖街58号玉湖居委祠堂前",
    "real_address": "广东省汕头市龙湖区",
    "lng": 116.728292,
    "lat": 23.379892
  },
  {
    "name": "玉湖2",
    "address": "东湖市场",
    "real_address": "广东省汕头市龙湖区东湖街27号中间店铺",
    "lng": 116.728369,
    "lat": 23.379066
  },
  {
    "name": "碧湖1",
    "address": "街心小广场",
    "real_address": "广东省汕头市龙湖区长平路98号",
    "lng": 116.727525,
    "lat": 23.366473
  },
  {
    "name": "碧湖2",
    "address": "龙湖街8号",
    "real_address": "龙湖区",
    "lng": 116.72651,
    "lat": 23.37861
  },
  {
    "name": "碧湖3",
    "address": "居委门前",
    "real_address": "汕头市龙湖区大北山一路1号",
    "lng": 116.723033,
    "lat": 23.378123
  },
  {
    "name": "南湖1",
    "address": "龙湖新村8栋对面",
    "real_address": "广东省汕头市龙湖区龙湖新村8栋",
    "lng": 116.730129,
    "lat": 23.378285
  },
  {
    "name": "练江1",
    "address": "合胜百货广场",
    "real_address": "广东省汕头市龙湖区黄河路与庐山路交叉口西北角",
    "lng": 116.745015,
    "lat": 23.394241
  },
  {
    "name": "练江2",
    "address": "充耀号钻石广场",
    "real_address": "广东省汕头市龙湖区华山北路57号",
    "lng": 116.725702,
    "lat": 23.384449
  },
  {
    "name": "金阳1",
    "address": "龙湖工业区9栋楼下广场",
    "real_address": "华山路38号",
    "lng": 116.72452,
    "lat": 23.381682
  },
  {
    "name": "金阳2",
    "address": "凤凰山路正阳园西侧龙湖沟边步道",
    "real_address": "汕头市龙湖区金霞街道榕江路5号设计大厦二楼",
    "lng": 116.723084,
    "lat": 23.377163
  },
  {
    "name": "高新2",
    "address": "香景雅园对面",
    "real_address": "汕头市龙湖区凤凰山路22号",
    "lng": 116.718119,
    "lat": 23.386252
  },
  {
    "name": "凤窖村委会",
    "address": "凤窖村凤华路1号",
    "real_address": "龙湖区",
    "lng": 116.748788,
    "lat": 23.441406
  },
  {
    "name": "凤窖市场",
    "address": "凤窖洪福路与丹桂路交界",
    "real_address": "广东省汕头市龙湖区",
    "lng": 116.748815,
    "lat": 23.441356
  },
  {
    "name": "凤窖老人组",
    "address": "凤窖村大祠堂",
    "real_address": "广东省汕头市龙湖区",
    "lng": 116.748815,
    "lat": 23.441356
  },
  {
    "name": "南社村妈宫前埕",
    "address": "南社村妈宫庙前",
    "real_address": "广东省汕头市龙湖区迎宾北路北50米",
    "lng": 116.737,
    "lat": 23.453712
  },
  {
    "name": "南社村大池文化公园",
    "address": "南社村大池旁",
    "real_address": "广东省汕头市龙湖区迎宾北路北50米",
    "lng": 116.737,
    "lat": 23.453712
  },
  {
    "name": "南社村临时市场",
    "address": "南社村南畔路旁",
    "real_address": "广东省汕头市龙湖区迎宾北路北50米",
    "lng": 116.737,
    "lat": 23.453712
  },
  {
    "name": "大衙村委会",
    "address": "大衙中兴路",
    "real_address": "汕头市龙湖区",
    "lng": 116.724584,
    "lat": 23.466027
  },
  {
    "name": "大衙古码头",
    "address": "大衙文化路",
    "real_address": "汕头市龙湖区",
    "lng": 116.724584,
    "lat": 23.466027
  },
  {
    "name": "大衙幼儿园",
    "address": "大衙文化路",
    "real_address": "汕头市龙湖区",
    "lng": 116.724584,
    "lat": 23.466027
  },
  {
    "name": "下蔡村和美里文体广场",
    "address": "下蔡村和南路1号",
    "real_address": "龙湖区",
    "lng": 116.759918,
    "lat": 23.43843
  },
  {
    "name": "龙头村西池文体广场",
    "address": "龙头村龙翔路中段",
    "real_address": "广东省汕头市龙湖区龙翔路",
    "lng": 116.754456,
    "lat": 23.438137
  },
  {
    "name": "龙头村大宗祠广场",
    "address": "龙头村永兴街中段",
    "real_address": "广东省汕头市龙湖区龙翔路",
    "lng": 116.754456,
    "lat": 23.438137
  },
  {
    "name": "凤美村文体广场",
    "address": "凤美村文体广场",
    "real_address": "汕头市龙湖区",
    "lng": 116.756675,
    "lat": 23.433779
  },
  {
    "name": "华埠篮球场",
    "address": "华埠村东大街",
    "real_address": "汕头市龙湖区",
    "lng": 116.750236,
    "lat": 23.434114
  },
  {
    "name": "华埠老协会",
    "address": "华埠村北大街",
    "real_address": "汕头市龙湖区",
    "lng": 116.750236,
    "lat": 23.434114
  },
  {
    "name": "华埠临时村委会",
    "address": "华埠村仓库路",
    "real_address": "汕头市龙湖区",
    "lng": 116.750236,
    "lat": 23.434114
  },
  {
    "name": "华新村综合市场",
    "address": "华新村池乾路北1号",
    "real_address": "广东省汕头市龙湖区外砂街道华新村",
    "lng": 116.752882,
    "lat": 23.423518
  },
  {
    "name": "七合村综合文体中心",
    "address": "七合村津东路南侧",
    "real_address": "广东省汕头市龙湖区",
    "lng": 116.794287,
    "lat": 23.405634
  },
  {
    "name": "七合村东兴文化广场",
    "address": "七合村东兴路",
    "real_address": "汕头市龙湖区东直大街",
    "lng": 116.803005,
    "lat": 23.409655
  },
  {
    "name": "八合村核酸检测点",
    "address": "八合村老年人协会",
    "real_address": "广东省汕头市龙湖区新溪文化活动中心(汕头市新溪街道政府西南)",
    "lng": 116.779638,
    "lat": 23.401261
  },
  {
    "name": "大兴村大兴公园",
    "address": "新海街道大兴村大兴公园",
    "real_address": "汕头市龙湖区",
    "lng": 116.808516,
    "lat": 23.399706
  },
  {
    "name": "东南村东南文体广场采样",
    "address": "东南村顺兴路南文体广场(原东南小学对面)",
    "real_address": "汕头市龙湖区东兴路与顺兴路交叉路口往西南约150米",
    "lng": 116.801918,
    "lat": 23.401882
  },
  {
    "name": "东南村委办公楼采样点",
    "address": "东南村顺兴路北村址",
    "real_address": "汕头市龙湖区",
    "lng": 116.80123,
    "lat": 23.401839
  },
  {
    "name": "东升村委会",
    "address": "龙湖区金鸿公路与中兴路交叉口东南方向110米",
    "real_address": "广东省汕头市龙湖区",
    "lng": 116.793074,
    "lat": 23.391589
  },
  {
    "name": "东升村公塭妈祖文化广场",
    "address": "龙湖区金鸿大道东升学校",
    "real_address": "广东省汕头市龙湖区金鸿公路东昇学校附近",
    "lng": 116.797963,
    "lat": 23.393435
  },
  {
    "name": "东升村廿亩内老协",
    "address": "龙湖区东升村廿亩内永安路中段",
    "real_address": "44路;106路",
    "lng": 116.792252,
    "lat": 23.392368
  },
  {
    "name": "东升村十合仔文化广场",
    "address": "龙湖区东升村十合仔中共路",
    "real_address": "汕头市龙湖区",
    "lng": 116.79744,
    "lat": 23.394602
  },
  {
    "name": "六份村文化广场",
    "address": "合份路与东围一路交界",
    "real_address": "广东省汕头市龙湖区",
    "lng": 116.787015,
    "lat": 23.338992
  },
  {
    "name": "十一合村休闲广场",
    "address": "合份路与陇北路交界处",
    "real_address": "广东省汕头市龙湖区",
    "lng": 116.723589,
    "lat": 23.435757
  },
  {
    "name": "十一合村委会",
    "address": "岭南路东侧",
    "real_address": "广东省汕头市龙湖区",
    "lng": 116.798639,
    "lat": 23.372104
  },
  {
    "name": "合艺术村停车场",
    "address": "十一合艺术村入口(岭南路西侧)",
    "real_address": "广东省汕头市龙湖区金鸿公路",
    "lng": 116.78819,
    "lat": 23.383329
  },
  {
    "name": "西南文明公园",
    "address": "新海街道西南村西南文明公园",
    "real_address": "广东省汕头市龙湖区青年路西50米",
    "lng": 116.780314,
    "lat": 23.374034
  },
  {
    "name": "西南村下十合广场",
    "address": "金鸿公路52号",
    "real_address": "龙湖区",
    "lng": 116.784882,
    "lat": 23.383951
  },
  {
    "name": "西南村下九合文体广场",
    "address": "源丰家私附近",
    "real_address": "汕头市龙湖区金鸿公路下拾合幼儿园东南侧约140米",
    "lng": 116.781918,
    "lat": 23.381134
  },
  {
    "name": "龙腾街道党群服务中心",
    "address": "龙湖区望洋山路与津湾东四街交叉口东南100米",
    "real_address": "广东省汕头市龙湖区",
    "lng": 116.787893,
    "lat": 23.342761
  },
  {
    "name": "海音广场",
    "address": "龙湖区泰星路9号",
    "real_address": "龙湖区",
    "lng": 116.772665,
    "lat": 23.347475
  },
  {
    "name": "御海天禧89栋街道楼下",
    "address": "龙湖区津湾东六街御海天禧89栋(与望洋山路交叉路口往西南约90米)",
    "real_address": "汕头市龙湖区望洋山路龙光御海天禧",
    "lng": 116.785271,
    "lat": 23.345374
  },
  {
    "name": "中海凯旋门",
    "address": "湖区中山路198号凯旋门雅苑西侧",
    "real_address": "中山路198号(中山东路南侧)柏嘉半岛2期(建设中)附近",
    "lng": 116.779678,
    "lat": 23.355358
  },
  {
    "name": "海湾一城大门",
    "address": "湖区中山路198号凯旋门雅苑西侧",
    "real_address": "中山路198号(中山东路南侧)柏嘉半岛2期(建设中)附近",
    "lng": 116.779678,
    "lat": 23.355358
  },
  {
    "name": "采集点1",
    "address": "富砂村文体广场",
    "real_address": "广东省汕头市龙湖区启萌幼儿园(富砂北路北)",
    "lng": 116.736559,
    "lat": 23.459879
  },
  {
    "name": "采集点2",
    "address": "金洲市场后阔埕",
    "real_address": "广东省汕头市龙湖区长平路98号",
    "lng": 116.727525,
    "lat": 23.366473
  },
  {
    "name": "采集点3",
    "address": "东溪村党建公园",
    "real_address": "汕头市龙湖区裕东路",
    "lng": 116.740594,
    "lat": 23.458999
  },
  {
    "name": "采集点4",
    "address": "仁和里村办公址前广场前",
    "real_address": "广东省汕头市龙湖区",
    "lng": 116.787078,
    "lat": 23.441737
  },
  {
    "name": "采集点5",
    "address": "五香溪村委会前广场",
    "real_address": "广东省汕头市龙湖区外砂街道",
    "lng": 116.795989,
    "lat": 23.438588
  },
  {
    "name": "采集点6",
    "address": "内陇村文体广场",
    "real_address": "广东省汕头市龙湖区东湖街二巷29号3层西北方向20米",
    "lng": 116.729234,
    "lat": 23.380194
  },
  {
    "name": "采集点7",
    "address": "内陇海乐城广场",
    "real_address": "广东省汕头市龙湖区蓬发路虹璟湾北区",
    "lng": 116.761827,
    "lat": 23.45105
  },
  {
    "name": "采集点8",
    "address": "林厝村卢厝池广场",
    "real_address": "汕头市龙湖区",
    "lng": 116.765452,
    "lat": 23.446441
  },
  {
    "name": "采集点9",
    "address": "林厝村成色园广场",
    "real_address": "汕头市龙湖区",
    "lng": 116.765452,
    "lat": 23.446441
  },
  {
    "name": "采集点10",
    "address": "林厝村委会大埕",
    "real_address": "广东省汕头市龙湖区林厝大道外砂街道",
    "lng": 116.765664,
    "lat": 23.446463
  },
  {
    "name": "采集点11",
    "address": "蓬中村一联老协",
    "real_address": "汕头市龙湖区",
    "lng": 116.760736,
    "lat": 23.443253
  },
  {
    "name": "采集点12",
    "address": "蓬中村二联德居里公园",
    "real_address": "汕头市龙湖区",
    "lng": 116.760736,
    "lat": 23.443253
  },
  {
    "name": "采集点13",
    "address": "蓬中村三联市场停车场",
    "real_address": "龙湖区外砂街道金蓬路(文祠路附近)",
    "lng": 116.760535,
    "lat": 23.444663
  },
  {
    "name": "采集点14",
    "address": "蓬中村四联文体广场",
    "real_address": "汕头市龙湖区蓬诒路蓬中华侨学校南侧约110米",
    "lng": 116.760436,
    "lat": 23.441612
  },
  {
    "name": "采集点15",
    "address": "蓬中村五联老协会",
    "real_address": "汕头市龙湖区",
    "lng": 116.760736,
    "lat": 23.443253
  },
  {
    "name": "采集点16",
    "address": "蓬中锦骏小区二期活动中心",
    "real_address": "汕头市龙湖区锦骏花园东区2栋",
    "lng": 116.757897,
    "lat": 23.44415
  },
  {
    "name": "采集点17",
    "address": "蓬中青创中心大楼前广场",
    "real_address": "汕头市龙湖区青年路海富花园西侧约210米",
    "lng": 116.757626,
    "lat": 23.447739
  },
  {
    "name": "采集点18",
    "address": "李厝村陇源工业区庙宫前广场",
    "real_address": "汕头市龙湖区",
    "lng": 116.772632,
    "lat": 23.445392
  },
  {
    "name": "采集点19",
    "address": "李厝村沙母顶文体广场",
    "real_address": "汕头市龙湖区",
    "lng": 116.772632,
    "lat": 23.445392
  },
  {
    "name": "采集点20",
    "address": "李厝村东怡园堤顶",
    "real_address": "汕头市龙湖区",
    "lng": 116.772632,
    "lat": 23.445392
  },
  {
    "name": "采集点21",
    "address": "李厝村王氏大宗大埕",
    "real_address": "汕头市龙湖区",
    "lng": 116.772632,
    "lat": 23.445392
  },
  {
    "name": "采集点22",
    "address": "李厝村委会前",
    "real_address": "汕头市龙湖区",
    "lng": 116.715755,
    "lat": 23.44109
  },
  {
    "name": "采集点23",
    "address": "李厝村新怡园停车场",
    "real_address": "广东省汕头市龙湖区外砂街道李厝村新怡园十路7巷1号",
    "lng": 116.771717,
    "lat": 23.44233
  },
  {
    "name": "采集点24",
    "address": "李厝小学前广场",
    "real_address": "汕头市龙湖区",
    "lng": 116.715755,
    "lat": 23.44109
  },
  {
    "name": "龙祥1站",
    "address": "洋滨篮球场",
    "real_address": "1路;3路;5路;24路;29路;32路;44路;55路;60路;66路;104路",
    "lng": 116.727573,
    "lat": 23.418719
  },
  {
    "name": "龙祥2站",
    "address": "洋滨居委内",
    "real_address": "洋安街13-1号附近",
    "lng": 116.729516,
    "lat": 23.417059
  },
  {
    "name": "龙祥3站",
    "address": "泰龙居委",
    "real_address": "广东省汕头市龙湖区龙祥街道官埭村泰龙居委会五巷1号",
    "lng": 116.734792,
    "lat": 23.414638
  },
  {
    "name": "龙祥4站",
    "address": "如龙居委会一楼(如北、如东)",
    "real_address": "广东省汕头市龙湖区嵩山北路8号2楼",
    "lng": 116.730778,
    "lat": 23.407973
  },
  {
    "name": "龙祥5站",
    "address": "如龙生态园(如南,如中,如西)",
    "real_address": "汕头市龙湖区如安街9号",
    "lng": 116.730403,
    "lat": 23.413925
  },
  {
    "name": "龙祥6站",
    "address": "新兴居委文化广场",
    "real_address": "广东省汕头市龙湖区田乾巷11号",
    "lng": 116.734515,
    "lat": 23.411171
  },
  {
    "name": "龙祥7站",
    "address": "光明茶城",
    "real_address": "汕头市龙湖区嵩山北路156号",
    "lng": 116.730101,
    "lat": 23.406929
  },
  {
    "name": "龙祥8站",
    "address": "诚品嘉园",
    "real_address": "盛业一街与盛业街交叉路口往西约50米(君悦·春江花园西侧约100米)",
    "lng": 116.728597,
    "lat": 23.403624
  },
  {
    "name": "龙祥9站",
    "address": "鮀滨职中",
    "real_address": "广东省汕头市龙湖区衡山路20号",
    "lng": 116.738747,
    "lat": 23.377418
  },
  {
    "name": "龙祥10站",
    "address": "御景江南二期大堂",
    "real_address": "汕头市龙湖区黄河路37号",
    "lng": 116.73622,
    "lat": 23.39128
  },
  {
    "name": "龙祥11站",
    "address": "源源花园",
    "real_address": "汕头市龙湖区衡山中街与衡山路交叉路口向西南约150米",
    "lng": 116.731606,
    "lat": 23.390273
  },
  {
    "name": "龙祥13站",
    "address": "东元田园北祠",
    "real_address": "广东省汕头市龙湖区东元街北150米",
    "lng": 116.759852,
    "lat": 23.40865
  },
  {
    "name": "龙祥14站",
    "address": "淮河路与西宁路交界",
    "real_address": "广东省汕头市龙湖区",
    "lng": 116.734708,
    "lat": 23.398768
  },
  {
    "name": "龙祥15站",
    "address": "夏桂埔居委",
    "real_address": "广东省汕头市龙湖区嵩山路203号",
    "lng": 116.735279,
    "lat": 23.39823
  },
  {
    "name": "龙祥16站",
    "address": "夏桂埔文化广场",
    "real_address": "龙湖区",
    "lng": 116.739819,
    "lat": 23.398504
  },
  {
    "name": "龙祥17站",
    "address": "李厝塭墘老人组",
    "real_address": "汕头市龙湖区",
    "lng": 116.743436,
    "lat": 23.402106
  },
  {
    "name": "龙祥18站",
    "address": "坑田老人组",
    "real_address": "汕头市龙湖区",
    "lng": 116.739839,
    "lat": 23.402999
  },
  {
    "name": "龙祥19站",
    "address": "夏桂埔小学",
    "real_address": "广东省汕头市龙湖区龙祥街道桂欣东路1巷16号",
    "lng": 116.741882,
    "lat": 23.39827
  },
  {
    "name": "龙祥20站",
    "address": "洛河路四季园步道",
    "real_address": "广东省汕头市龙湖区洛河路11号(泰山路与洛河路交界处)",
    "lng": 116.740991,
    "lat": 23.408109
  },
  {
    "name": "龙祥21站",
    "address": "宜华城",
    "real_address": "广东省汕头市龙湖区汕汾路与外砂新津河交界处(即正大体育馆对面)",
    "lng": 116.745289,
    "lat": 23.415199
  },
  {
    "name": "鸥上古直祠",
    "address": "鸥上古直祠",
    "real_address": "汕头市龙湖区鸥上学校南侧约170米",
    "lng": 116.724582,
    "lat": 23.422246
  },
  {
    "name": "鸥上金谷公祠",
    "address": "鸥上金谷公祠",
    "real_address": "广东省汕头市龙湖区鸥上居委柳河路",
    "lng": 116.724917,
    "lat": 23.424603
  },
  {
    "name": "鸥上腾辉广场",
    "address": "鸥上腾辉广场",
    "real_address": "广东省汕头市龙湖区长平路98号",
    "lng": 116.727525,
    "lat": 23.366473
  },
  {
    "name": "鸥上五座祠",
    "address": "鸥上五座祠",
    "real_address": "汕头市龙湖区鸥上学校南侧约170米",
    "lng": 116.724582,
    "lat": 23.422246
  },
  {
    "name": "鸥上张厝祠",
    "address": "鸥上张厝祠",
    "real_address": "汕头市龙湖区鸥上学校南侧约170米",
    "lng": 116.724582,
    "lat": 23.422246
  },
  {
    "name": "鸥下第五老人组",
    "address": "鸥下第五老人组",
    "real_address": "广东省汕头市龙湖区鸥下鸥汀邮电南路1号附近",
    "lng": 116.722736,
    "lat": 23.41392
  },
  {
    "name": "鸥下妈宫广场",
    "address": "鸥下妈宫广场",
    "real_address": "广东省汕头市龙湖区鸥下鸥汀邮电南路1号附近",
    "lng": 116.722736,
    "lat": 23.41392
  },
  {
    "name": "鸥下围内街老人组",
    "address": "鸥下围内街老人组",
    "real_address": "广东省汕头市龙湖区",
    "lng": 116.713496,
    "lat": 23.41095
  },
  {
    "name": "鸥下袁氏祠堂",
    "address": "鸥下袁氏祠堂",
    "real_address": "汕头市龙湖区鸥下南畔东街下蓬中心小学东北侧约80米",
    "lng": 116.720355,
    "lat": 23.415991
  },
  {
    "name": "西畔广场",
    "address": "西畔广场",
    "real_address": "汕头市龙湖区",
    "lng": 116.715745,
    "lat": 23.417276
  },
  {
    "name": "万石三山池生态公园",
    "address": "万石三山池生态公园",
    "real_address": "广东省汕头市龙湖区深汕高速公路",
    "lng": 116.768254,
    "lat": 23.358822
  },
  {
    "name": "草池文化中心",
    "address": "草池文化中心",
    "real_address": "广东省汕头市龙湖区兴安北路吴厝市场西侧约230米",
    "lng": 116.712338,
    "lat": 23.441069
  },
  {
    "name": "延陵广场",
    "address": "延陵广场",
    "real_address": "汕头市龙湖区汕昆高速吴厝市场东南侧约120米",
    "lng": 116.715181,
    "lat": 23.439469
  },
  {
    "name": "旦家园文体广场",
    "address": "旦家园文体广场",
    "real_address": "汕头市龙湖区",
    "lng": 116.712467,
    "lat": 23.45617
  },
  {
    "name": "蔡社德祖祠",
    "address": "蔡社德祖祠",
    "real_address": "广东省汕头市龙湖区鸥汀街道蔡社德祖祠",
    "lng": 116.725074,
    "lat": 23.448885
  },
  {
    "name": "蔡社内园",
    "address": "蔡社内园",
    "real_address": "汕头市龙湖区蔡社渔津北街",
    "lng": 116.725665,
    "lat": 23.45078
  },
  {
    "name": "陈厝寨广场",
    "address": "陈厝寨广场",
    "real_address": "汕头市龙湖区蔡社渔津北街",
    "lng": 116.721059,
    "lat": 23.443102
  },
  {
    "name": "陈厝寨妈宫",
    "address": "陈厝寨妈宫",
    "real_address": "汕头市龙湖区蔡社渔津北街",
    "lng": 116.721059,
    "lat": 23.443102
  },
  {
    "name": "铁洲市场",
    "address": "铁洲市场",
    "real_address": "广东省汕头市龙湖区",
    "lng": 116.733404,
    "lat": 23.446309
  },
  {
    "name": "溪西老人组",
    "address": "溪西老人组",
    "real_address": "汕头市龙湖区",
    "lng": 116.737312,
    "lat": 23.443122
  },
  {
    "name": "新地广场",
    "address": "新地广场",
    "real_address": "汕头市龙湖区",
    "lng": 116.734566,
    "lat": 23.435419
  },
  {
    "name": "流美文体广场",
    "address": "流美文体广场",
    "real_address": "广东省汕头市龙湖区流美大街南50米",
    "lng": 116.730518,
    "lat": 23.43198
  },
  {
    "name": "金鸥园(一期三楼平台)",
    "address": "金鸥园(一期三楼平台)",
    "real_address": "广东省汕头市龙湖区鸥汀街道汕樟北路",
    "lng": 116.72371,
    "lat": 23.414664
  },
  {
    "name": "万吉生活区",
    "address": "新一中大门前步道",
    "real_address": "汕头市龙湖区乐山路与新村七巷一横交叉口西南角",
    "lng": 116.714396,
    "lat": 23.420461
  },
  {
    "name": "万吉工业区",
    "address": "龙江路万吉工业园区办公址",
    "real_address": "汕头市龙湖区龙江路13号",
    "lng": 116.721854,
    "lat": 23.426312
  },
  {
    "name": "新津1站",
    "address": "绿茵庄79栋",
    "real_address": "汕头市龙湖区绿茵庄79栋",
    "lng": 116.739117,
    "lat": 23.385553
  },
  {
    "name": "新津2站",
    "address": "绿茵庄22栋",
    "real_address": "汕头市龙湖区绿茵庄22栋",
    "lng": 116.739318,
    "lat": 23.382947
  },
  {
    "name": "新津3站",
    "address": "华信花园1栋",
    "real_address": "长江路60号",
    "lng": 116.73665,
    "lat": 23.38439
  },
  {
    "name": "新津4站",
    "address": "绿茵庄12栋",
    "real_address": "汕头市龙湖区绿茵庄12栋",
    "lng": 116.738349,
    "lat": 23.382491
  },
  {
    "name": "新津5站",
    "address": "泽塭街3号(泽湖社区综合性文化服务中心)",
    "real_address": "广东省汕头市龙湖区新津街道泽塭街3号二楼",
    "lng": 116.765087,
    "lat": 23.40018
  },
  {
    "name": "新津6站",
    "address": "南碧埠文化广场",
    "real_address": "广东汕头市龙湖区新津街道南市场西南50米新和中街北南",
    "lng": 116.749533,
    "lat": 23.398591
  },
  {
    "name": "新津7站",
    "address": "金桂街一巷(车路源附近)",
    "real_address": "广东省汕头市龙湖区",
    "lng": 116.745859,
    "lat": 23.396749
  },
  {
    "name": "新津8站",
    "address": "新和中街(正宗凤凰茶附近)",
    "real_address": "广东省汕头市龙湖区",
    "lng": 116.751519,
    "lat": 23.399176
  },
  {
    "name": "新津9站",
    "address": "珠津篮球场",
    "real_address": "广东省汕头市龙湖区泰山南路和新津路交叉口往东50米",
    "lng": 116.765319,
    "lat": 23.3904
  },
  {
    "name": "新津10站",
    "address": "珠津文化活动中心",
    "real_address": "广东省汕头市龙湖区新津街道珠津社区金南二街老年人活动中心二楼",
    "lng": 116.761396,
    "lat": 23.394431
  },
  {
    "name": "新津11站",
    "address": "泰和街与中街交界点(泰和街92号)",
    "real_address": "广东省汕头市龙湖区",
    "lng": 116.753478,
    "lat": 23.397134
  },
  {
    "name": "新津12站",
    "address": "东新文化广场",
    "real_address": "广东省汕头市龙湖区昆仑山路12号",
    "lng": 116.779605,
    "lat": 23.401239
  },
  {
    "name": "新津13站",
    "address": "东新居委办公楼(安和街122号)",
    "real_address": "汕头市龙湖区永和街119号",
    "lng": 116.747104,
    "lat": 23.39243
  },
  {
    "name": "新津14站",
    "address": "金港老年人活动中心门口",
    "real_address": "广东省汕头市龙湖区衡山路32号绿茵庄17楼",
    "lng": 116.735422,
    "lat": 23.383026
  },
  {
    "name": "新津15站",
    "address": "长江路凯逸家园大门口",
    "real_address": "汕头市龙湖区长江路39号",
    "lng": 116.733375,
    "lat": 23.385019
  },
  {
    "name": "新津16站",
    "address": "衡山路华信苑大门口",
    "real_address": "汕头市龙湖区黄河路与衡山路交叉路口向西南约50米",
    "lng": 116.733092,
    "lat": 23.388106
  },
  {
    "name": "新津17站",
    "address": "庐山花园13栋物业",
    "real_address": "广东省汕头市龙湖区庐山花园北区13栋",
    "lng": 116.748001,
    "lat": 23.387013
  },
  {
    "name": "新津18站",
    "address": "天璟雅居2栋物业架空层",
    "real_address": "广东省汕头市龙湖区珠业二街28号",
    "lng": 116.749978,
    "lat": 23.386702
  },
  {
    "name": "新津19站",
    "address": "星海华庭7栋会所对面",
    "real_address": "汕头市龙湖区珠江路45号",
    "lng": 116.750626,
    "lat": 23.3846
  },
  {
    "name": "新津20站",
    "address": "金泰社区老年人活动中心",
    "real_address": "广东省汕头市龙湖区金泰街金华楼东北侧约200米",
    "lng": 116.760179,
    "lat": 23.390106
  },
  {
    "name": "新津21站",
    "address": "珠江路67号广梅汕家园13-104华晖社区居委门前",
    "real_address": "广东省汕头市龙湖区新津街道珠江路67号",
    "lng": 116.759137,
    "lat": 23.38476
  },
  {
    "name": "新津22站",
    "address": "长江路106佰悦春天花园大堂",
    "real_address": "汕头市龙湖区长江路106号",
    "lng": 116.753817,
    "lat": 23.387261
  },
  {
    "name": "新津23站",
    "address": "永和街121号",
    "real_address": "龙湖区",
    "lng": 116.747359,
    "lat": 23.392616
  },
  {
    "name": "新津24站",
    "address": "宁和街114号旁(玄天上帝庙)",
    "real_address": "广东省汕头市龙湖区",
    "lng": 116.747922,
    "lat": 23.391341
  },
  {
    "name": "新津25站",
    "address": "米兰假日小区",
    "real_address": ":广东省汕头市龙湖区珠江路28号",
    "lng": 116.745899,
    "lat": 23.383349
  },
  {
    "name": "新津26站",
    "address": "丽日庄东区26-22栋之间",
    "real_address": "汕头市龙湖区丽日庄东区26栋",
    "lng": 116.745945,
    "lat": 23.38181
  },
  {
    "name": "新津27站",
    "address": "泌尿科医院",
    "real_address": "广东省汕头市龙湖区珠池路45号",
    "lng": 116.745966,
    "lat": 23.378594
  },
  {
    "name": "新津28站",
    "address": "金龙花园与丽日雅居",
    "real_address": "汕头市龙湖区嵩山南路与珠江路交叉路口向东南约100米",
    "lng": 116.742943,
    "lat": 23.382858
  },
  {
    "name": "新津29站",
    "address": "盛丰嘉园门口",
    "real_address": "31街区珠业南街1号",
    "lng": 116.749141,
    "lat": 23.383606
  },
  {
    "name": "新津30站",
    "address": "清华熙园门口",
    "real_address": "广东省汕头市龙湖区珠池路59号",
    "lng": 116.750443,
    "lat": 23.379273
  },
  {
    "name": "新津31站",
    "address": "东龙居委会会址",
    "real_address": "汕头市龙湖区新津街道东龙社区居委会金南五横十号",
    "lng": 116.763841,
    "lat": 23.396848
  },
  {
    "name": "新津32站",
    "address": "高压线下东龙公园",
    "real_address": "广东省汕头市龙湖区青年路西50米",
    "lng": 116.780314,
    "lat": 23.374034
  },
  {
    "name": "新津33站",
    "address": "高埕文化广场",
    "real_address": "汕头市龙湖区",
    "lng": 116.764484,
    "lat": 23.400487
  },
  {
    "name": "新津34站",
    "address": "金南三街高焊段北二巷停车场",
    "real_address": "汕头市龙湖区蓬岭路新发园南侧",
    "lng": 116.76305,
    "lat": 23.448322
  },
  {
    "name": "新津35站",
    "address": "丽水中街长廊东段",
    "real_address": "广东省汕头市龙湖区",
    "lng": 116.762019,
    "lat": 23.398196
  },
  {
    "name": "新津36站",
    "address": "丽水中街长廊中段",
    "real_address": "广东省汕头市龙湖区",
    "lng": 116.763749,
    "lat": 23.371537
  },
  {
    "name": "新津37站",
    "address": "丽水中街长廊西段",
    "real_address": "广东省汕头市龙湖区",
    "lng": 116.763295,
    "lat": 23.400194
  },
  {
    "name": "新津38站",
    "address": "珠江路丽水雅轩广场",
    "real_address": "汕头市龙湖区珠江路10号",
    "lng": 116.744519,
    "lat": 23.383545
  },
  {
    "name": "新津39站",
    "address": "丽水幼儿园门口",
    "real_address": "广东省汕头市龙湖区衡山路丽水庄西区13栋",
    "lng": 116.73835,
    "lat": 23.380948
  },
  {
    "name": "新津40站",
    "address": "嵩山路50号",
    "real_address": "龙湖区",
    "lng": 116.743901,
    "lat": 23.378469
  },
  {
    "name": "新津41站",
    "address": "凤凰花园7栋106",
    "real_address": "广东省汕头市龙湖区庐山南路42号凤凰花园7栋106室",
    "lng": 116.743034,
    "lat": 23.390821
  },
  {
    "name": "新津42站",
    "address": "江南星语花园5栋架空层",
    "real_address": "广东省汕头市龙湖区黄河路51号2栋",
    "lng": 116.74318,
    "lat": 23.39425
  },
  {
    "name": "新津43站",
    "address": "佳和居委会办公楼(安和街96号)",
    "real_address": "汕头市龙湖区安和街96号",
    "lng": 116.75066,
    "lat": 23.390902
  },
  {
    "name": "新津44站",
    "address": "宁和街与黄山路交界路口处",
    "real_address": "广东省汕头市龙湖区",
    "lng": 116.753293,
    "lat": 23.382748
  },
  {
    "name": "新津45站",
    "address": "永和街黄山路交界",
    "real_address": "广东省汕头市龙湖区",
    "lng": 116.753293,
    "lat": 23.382748
  },
  {
    "name": "新津46站",
    "address": "金凤东街(金凤老年人活动中心)",
    "real_address": "广东省汕头市龙湖区",
    "lng": 116.758144,
    "lat": 23.398162
  },
  {
    "name": "新津47站",
    "address": "珠合市场原疏导区",
    "real_address": "汕头市龙湖区衡山路26号",
    "lng": 116.737095,
    "lat": 23.37925
  },
  {
    "name": "新津48站",
    "address": "紫云心语正门",
    "real_address": "汕头市龙湖区珠池路9号",
    "lng": 116.735604,
    "lat": 23.378633
  },
  {
    "name": "新津49站",
    "address": "紫云花园物业前面",
    "real_address": "广东省汕头市龙湖区绿茵南街与衡山路交叉口西南150米",
    "lng": 116.735373,
    "lat": 23.381815
  },
  {
    "name": "新津50站",
    "address": "紫云庄物业管理处西",
    "real_address": "汕头市龙湖区天山南路49号",
    "lng": 116.733257,
    "lat": 23.381535
  },
  {
    "name": "新津51站",
    "address": "锦绣江南南门",
    "real_address": "汕头市龙湖区长江路",
    "lng": 116.734936,
    "lat": 23.382533
  },
  {
    "name": "新津52站",
    "address": "金津社区综合性文化服务中心",
    "real_address": "汕头市龙湖区韶山路金津段东龙小学西侧约130米",
    "lng": 116.760164,
    "lat": 23.399124
  },
  {
    "name": "新津53站",
    "address": "安和街39号",
    "real_address": "龙湖区",
    "lng": 116.745266,
    "lat": 23.387923
  },
  {
    "name": "新津54站",
    "address": "泰和街南和六巷巷口",
    "real_address": "广东省汕头市龙湖区",
    "lng": 116.753478,
    "lat": 23.397134
  },
  {
    "name": "新津55站",
    "address": "光和街十一巷巷口",
    "real_address": "广东省汕头市龙湖区",
    "lng": 116.749425,
    "lat": 23.389218
  },
  {
    "name": "新津56站",
    "address": "新津大厦文体广场",
    "real_address": "汕头市龙湖区嵩山路89号",
    "lng": 116.741938,
    "lat": 23.385199
  },
  {
    "name": "新津57站",
    "address": "龙都禧园5栋架空层",
    "real_address": "汕头市龙湖区庐山路26号",
    "lng": 116.746118,
    "lat": 23.384524
  },
  {
    "name": "新津58站",
    "address": "龙都锦园6栋架空层",
    "real_address": "汕头市龙湖区长江路84号",
    "lng": 116.743652,
    "lat": 23.386621
  },
  {
    "name": "新津59站",
    "address": "翠英庄海关宿舍",
    "real_address": "汕头市龙湖区庐山南路龙光·龙都禧园北侧约60米",
    "lng": 116.746067,
    "lat": 23.38625
  },
  {
    "name": "新津60站",
    "address": "金和居委办公址",
    "real_address": "汕头市龙湖区陈厝合安和街35号之3号",
    "lng": 116.745273,
    "lat": 23.387799
  },
  {
    "name": "新津61站",
    "address": "嵩山路与宁和街交叉口",
    "real_address": "汕头市龙湖区嵩山路与珠江路交叉口",
    "lng": 116.742779,
    "lat": 23.384114
  },
  {
    "name": "新津62站",
    "address": "泰和街祖师宫门口",
    "real_address": "广东省汕头市龙湖区",
    "lng": 116.753478,
    "lat": 23.397134
  },
  {
    "name": "新津63站",
    "address": "香域水岸花园二期商铺前面",
    "real_address": "广东省汕头市龙湖区珠津南路东侧四海工业园东北300米",
    "lng": 116.771665,
    "lat": 23.386541
  },
  {
    "name": "新津64站",
    "address": "五矿17栋前面",
    "real_address": "汕头东线",
    "lng": 116.738901,
    "lat": 23.412902
  },
  {
    "name": "新津65站",
    "address": "碧桂园大门",
    "real_address": "汕头市龙湖区玉津中路13号附近",
    "lng": 116.771841,
    "lat": 23.391869
  },
  {
    "name": "新津66站",
    "address": "新津街道金龙居委辛龙街金龙段中段1号(金龙居委会办公楼)",
    "real_address": "广东省汕头市龙湖区金龙社区辛龙街金龙段中段1号",
    "lng": 116.757896,
    "lat": 23.401834
  },
  {
    "name": "新津67站",
    "address": "海纳天地广场",
    "real_address": "广东省汕头市龙湖区嵩山南路98号",
    "lng": 116.739314,
    "lat": 23.388791
  },
  {
    "name": "新津68站",
    "address": "盛荟商业步行街",
    "real_address": "广东省汕头市龙湖区黄河路辅路与衡山路交叉口东180米",
    "lng": 116.735289,
    "lat": 23.38917
  },
  {
    "name": "北中村文化广场",
    "address": "北中村文化广场",
    "real_address": "汕头市龙湖区",
    "lng": 116.774586,
    "lat": 23.42233
  },
  {
    "name": "北中上牛埔",
    "address": "北中上牛埔",
    "real_address": "汕头市龙湖区",
    "lng": 116.774586,
    "lat": 23.42233
  },
  {
    "name": "北中学埔",
    "address": "北中学埔",
    "real_address": "嵩山北路188号",
    "lng": 116.727238,
    "lat": 23.411879
  },
  {
    "name": "北中韩祠",
    "address": "北中韩祠",
    "real_address": "汕头市龙湖区",
    "lng": 116.774586,
    "lat": 23.42233
  },
  {
    "name": "北中十八户老爷宫",
    "address": "北中十八户老爷宫",
    "real_address": "汕头市龙湖区北中村十八户路口",
    "lng": 116.778359,
    "lat": 23.421095
  },
  {
    "name": "上头合新区三头路",
    "address": "上头合新区三头路",
    "real_address": "广东省汕头市龙湖区",
    "lng": 116.785498,
    "lat": 23.413581
  },
  {
    "name": "上头合村老协",
    "address": "上头合村老协",
    "real_address": "汕头市龙湖区顺旺路",
    "lng": 116.787751,
    "lat": 23.418616
  },
  {
    "name": "中头合广场",
    "address": "中头合广场",
    "real_address": "汕头市龙湖区",
    "lng": 116.783276,
    "lat": 23.414057
  },
  {
    "name": "下头合广场",
    "address": "下头合广场",
    "real_address": "广东省汕头市龙湖区新溪街道发源路下头合小学",
    "lng": 116.776142,
    "lat": 23.406647
  },
  {
    "name": "上三村址隔壁",
    "address": "上三村址隔壁",
    "real_address": "广东省汕头市龙湖区新溪街道",
    "lng": 116.786115,
    "lat": 23.410327
  },
  {
    "name": "中三合市场",
    "address": "中三合市场",
    "real_address": "广东省汕头市龙湖区X063(金新路)",
    "lng": 116.782718,
    "lat": 23.401072
  },
  {
    "name": "下三广场",
    "address": "下三广场",
    "real_address": "汕头市龙湖区昆仑山路与发源路交叉路口往南约80米",
    "lng": 116.775072,
    "lat": 23.405359
  },
  {
    "name": "新合广场",
    "address": "新合广场",
    "real_address": "汕头市龙湖区长江路23号",
    "lng": 116.729458,
    "lat": 23.382793
  },
  {
    "name": "六合村址隔壁",
    "address": "六合村址隔壁",
    "real_address": "广东汕头市龙湖区新溪街道",
    "lng": 116.796695,
    "lat": 23.407058
  },
  {
    "name": "珠池1站",
    "address": "星湖公园丰泽段",
    "real_address": "汕头市龙湖区中山东路与珠港二路交叉路口东侧",
    "lng": 116.743812,
    "lat": 23.360281
  },
  {
    "name": "珠池2站",
    "address": "清华城(丰泽东一街)",
    "real_address": "汕头市龙湖区长平路153号",
    "lng": 116.751168,
    "lat": 23.369516
  },
  {
    "name": "珠池3站",
    "address": "金砂东路蓝堡公寓工行",
    "real_address": "金砂路162号",
    "lng": 116.747905,
    "lat": 23.372181
  },
  {
    "name": "珠池4站",
    "address": "金砂东路与黄山路交界处",
    "real_address": "汕头市龙湖区黄山路",
    "lng": 116.753671,
    "lat": 23.372774
  },
  {
    "name": "珠池5站",
    "address": "恒信花园会所",
    "real_address": "汕头市龙湖区丰泽南街与嵩山南路交叉路口向东南约100米",
    "lng": 116.745091,
    "lat": 23.36939
  },
  {
    "name": "珠池6站",
    "address": "世贸花园会所",
    "real_address": "广东省汕头市龙湖区金砂东路142号",
    "lng": 116.741353,
    "lat": 23.370976
  },
  {
    "name": "珠池7站",
    "address": "新城市广场大门口",
    "real_address": "汕头市龙湖区新城市广场b区1-2楼",
    "lng": 116.742181,
    "lat": 23.368417
  },
  {
    "name": "珠池8站",
    "address": "阳光海岸一期会所",
    "real_address": "广东省汕头市龙湖区长平东路与黄山路交叉口",
    "lng": 116.756412,
    "lat": 23.366505
  },
  {
    "name": "珠池9站",
    "address": "阳光海岸二期会所",
    "real_address": "广东省汕头市龙湖区长平东路与黄山路交叉口",
    "lng": 116.756412,
    "lat": 23.366505
  },
  {
    "name": "珠池10站",
    "address": "万泰春天东区正门口(韩江路)",
    "real_address": "广东省汕头市龙湖区韩江路41号",
    "lng": 116.755341,
    "lat": 23.364047
  },
  {
    "name": "珠池11站",
    "address": "香域春天5-6号门",
    "real_address": "汕头市龙湖区泰山路8号",
    "lng": 116.760202,
    "lat": 23.365209
  },
  {
    "name": "珠池12站",
    "address": "东泰城市花园西正门口",
    "real_address": "广东省汕头市龙湖区泰山南路15号",
    "lng": 116.762191,
    "lat": 23.364166
  },
  {
    "name": "珠池13站",
    "address": "尚海阳光会所",
    "real_address": "汕头市龙湖区韩江路58号",
    "lng": 116.755187,
    "lat": 23.361713
  },
  {
    "name": "珠池14站",
    "address": "星湖豪景北门",
    "real_address": "广东省汕头市龙湖区中山路239号(近星湖豪景)",
    "lng": 116.753099,
    "lat": 23.360273
  },
  {
    "name": "珠池15站",
    "address": "万豪南湾东门",
    "real_address": "广东省汕头市龙湖区欣利万豪南湾(中山东路北150米)",
    "lng": 116.753989,
    "lat": 23.358954
  },
  {
    "name": "珠池16站",
    "address": "丰华花园大门",
    "real_address": "广东省汕头市龙湖区金砂东路192号",
    "lng": 116.756962,
    "lat": 23.372275
  },
  {
    "name": "珠池17站",
    "address": "龙禧大区会所",
    "real_address": "汕头市龙湖区丰华庄路与长平东路交叉路口往西北约100米",
    "lng": 116.755327,
    "lat": 23.369967
  },
  {
    "name": "珠池18站",
    "address": "帝豪精品酒店门口",
    "real_address": "21路;44路;64路;123路;K2路;南澳105路",
    "lng": 116.755931,
    "lat": 23.372902
  },
  {
    "name": "珠池19站",
    "address": "永安居委",
    "real_address": "汕头市龙湖区永安大楼2楼",
    "lng": 116.771074,
    "lat": 23.367406
  },
  {
    "name": "珠池20站",
    "address": "永津街村北",
    "real_address": "广东省汕头市龙湖区",
    "lng": 116.774337,
    "lat": 23.372658
  },
  {
    "name": "珠池21站",
    "address": "三百亩将军宫",
    "real_address": "汕头市龙湖区中山东路257号",
    "lng": 116.771505,
    "lat": 23.357733
  },
  {
    "name": "珠池22站",
    "address": "广寿街街心广场",
    "real_address": "广东省汕头市龙湖区",
    "lng": 116.745613,
    "lat": 23.376763
  },
  {
    "name": "珠池23站",
    "address": "金山花园后门",
    "real_address": "汕头市龙湖区金砂东路157号",
    "lng": 116.750253,
    "lat": 23.373695
  },
  {
    "name": "珠池24站",
    "address": "星湖丽景广场",
    "real_address": "汕头市龙湖区金砂东路161号",
    "lng": 116.752984,
    "lat": 23.373691
  },
  {
    "name": "珠池25站",
    "address": "龙珠花园会所",
    "real_address": "汕头市龙湖区金砂东路149号",
    "lng": 116.747635,
    "lat": 23.373846
  },
  {
    "name": "珠池26站",
    "address": "衡山路亿兴大厦",
    "real_address": "汕头市龙湖区衡山路金涛庄西区16栋",
    "lng": 116.739009,
    "lat": 23.36543
  },
  {
    "name": "珠池27站",
    "address": "嘉福大厦西侧",
    "real_address": "汕头市龙湖区韩江路23号",
    "lng": 116.741979,
    "lat": 23.363546
  },
  {
    "name": "珠池28站",
    "address": "金涛北街罗长发超市",
    "real_address": "广东省汕头市龙湖区金涛庄东区46幢首层",
    "lng": 116.74181,
    "lat": 23.366513
  },
  {
    "name": "珠池29站",
    "address": "嵩山路恒青医药",
    "real_address": "广东省汕头市龙湖区珠池路15号华裕大厦10~12号",
    "lng": 116.737917,
    "lat": 23.378513
  },
  {
    "name": "珠池30站",
    "address": "长平路春和苑",
    "real_address": "汕头市龙湖区长平路132号",
    "lng": 116.740126,
    "lat": 23.367798
  },
  {
    "name": "珠池31站",
    "address": "明珠桥伯公",
    "real_address": "汕头市龙湖区黄山路45号",
    "lng": 116.753459,
    "lat": 23.376179
  },
  {
    "name": "珠池32站",
    "address": "合信华美花园会所",
    "real_address": "汕头市龙湖区珠池路2号",
    "lng": 116.735019,
    "lat": 23.376632
  },
  {
    "name": "珠池33站",
    "address": "金砂东路鲜当家",
    "real_address": "广东省汕头市龙湖区金砂路127号朝阳庄南区2栋1楼",
    "lng": 116.73572,
    "lat": 23.372785
  },
  {
    "name": "珠池35站",
    "address": "新河沟关爱善堂",
    "real_address": "广东省汕头市龙湖区丹阳庄丹阳东街威山公寓(国新花园南)",
    "lng": 116.737663,
    "lat": 23.366897
  },
  {
    "name": "珠池36站",
    "address": "丹阳中学",
    "real_address": "广东省汕头市龙湖区长平路丹阳庄内",
    "lng": 116.735438,
    "lat": 23.366577
  },
  {
    "name": "珠池37站",
    "address": "韩江路阳光点",
    "real_address": "广东省汕头市龙湖区",
    "lng": 116.752401,
    "lat": 23.362947
  },
  {
    "name": "珠池38站",
    "address": "朝阳壹号大厦平台",
    "real_address": "朝阳南街与朝阳西街交叉口东150米",
    "lng": 116.735688,
    "lat": 23.369608
  },
  {
    "name": "珠池39站",
    "address": "朝阳街心公园",
    "real_address": "广东省汕头市龙湖区泰山路与中泰立交桥交汇处",
    "lng": 116.76002,
    "lat": 23.359366
  },
  {
    "name": "珠池40站",
    "address": "朝阳中区12与16幢之间",
    "real_address": "汕头市龙湖区朝阳庄中区26幢",
    "lng": 116.735046,
    "lat": 23.37015
  },
  {
    "name": "珠池41站",
    "address": "星洲家园后门",
    "real_address": "汕头市龙湖区金砂东路128号",
    "lng": 116.736848,
    "lat": 23.371731
  },
  {
    "name": "珠池42站",
    "address": "金叶岛社区文化广场(D栋和E栋中间)",
    "real_address": "广东省汕头市龙湖区珠池街道长平路888号金叶岛国际花园E栋楼下",
    "lng": 116.778314,
    "lat": 23.369857
  },
  {
    "name": "珠池43站",
    "address": "汕头第一城内",
    "real_address": "汕头市龙湖区衡山路16号",
    "lng": 116.740707,
    "lat": 23.373735
  },
  {
    "name": "珠池44站",
    "address": "春泽花园后门",
    "real_address": "汕头市龙湖区金砂路137号",
    "lng": 116.743672,
    "lat": 23.374019
  },
  {
    "name": "珠池45站",
    "address": "明珠广场",
    "real_address": "2路;29路;45路;53路;65;65路;高铁快线东一线;汕头东线",
    "lng": 116.738299,
    "lat": 23.375087
  },
  {
    "name": "珠池46站",
    "address": "宝珠苑楼下",
    "real_address": "汕头市龙湖区衡山路与锦龙路交叉路口向东南约40米",
    "lng": 116.738609,
    "lat": 23.375573
  },
  {
    "name": "珠池47站",
    "address": "锦泰花园会所",
    "real_address": "广东省汕头市龙湖区汕头市中山东路与黄山路交界",
    "lng": 116.748857,
    "lat": 23.362015
  },
  {
    "name": "珠池48站",
    "address": "锦泰花园六号门",
    "real_address": "广东省汕头市龙湖区汕头市中山东路与黄山路交界",
    "lng": 116.748857,
    "lat": 23.362015
  },
  {
    "name": "珠池49站",
    "address": "中泰花园会所",
    "real_address": "汕头市龙湖区中山东路227号",
    "lng": 116.741748,
    "lat": 23.361884
  },
  {
    "name": "珠池50站",
    "address": "中泰花园一号门",
    "real_address": "汕头市龙湖区中山路227号",
    "lng": 116.741895,
    "lat": 23.360653
  },
  {
    "name": "珠池51站",
    "address": "黄山路星湖城大门",
    "real_address": "广东省汕头市龙湖区",
    "lng": 116.753293,
    "lat": 23.382748
  },
  {
    "name": "珠池52站",
    "address": "银安花园",
    "real_address": "汕头市龙湖区珠池街道珠池路68号",
    "lng": 116.754861,
    "lat": 23.377567
  },
  {
    "name": "珠池53站",
    "address": "星汇上品步行街",
    "real_address": "广东省汕头市龙湖区泰山南路南信星汇上品",
    "lng": 116.758681,
    "lat": 23.377058
  },
  {
    "name": "珠池54站",
    "address": "星湖城6号门",
    "real_address": "广东省汕头市龙湖区汕充路与泰山南路交叉口西约140米",
    "lng": 116.758286,
    "lat": 23.374311
  },
  {
    "name": "珠池55站",
    "address": "黄山路绿化带(存心善堂旁)",
    "real_address": "广东省汕头市龙湖区金砂东路东方玫瑰",
    "lng": 116.753275,
    "lat": 23.374493
  },
  {
    "name": "珠池56站",
    "address": "金丰市场对面(金丰花园步道)",
    "real_address": "广东省汕头市龙湖区黄山路53号",
    "lng": 116.751807,
    "lat": 23.377738
  },
  {
    "name": "珠池57站",
    "address": "珠池小学门口",
    "real_address": "汕头市龙湖区珠池新村南21栋403号",
    "lng": 116.750765,
    "lat": 23.376353
  },
  {
    "name": "珠池58站",
    "address": "广寿街街心广场",
    "real_address": "广东省汕头市龙湖区",
    "lng": 116.745613,
    "lat": 23.376763
  },
  {
    "name": "珠池59站",
    "address": "广兴居委办公楼",
    "real_address": "汕头市龙湖区",
    "lng": 116.747182,
    "lat": 23.377462
  },
  {
    "name": "珠池60站",
    "address": "广福街兴德街路口",
    "real_address": "广东省汕头市龙湖区",
    "lng": 116.747648,
    "lat": 23.375768
  },
  {
    "name": "珠池61站",
    "address": "蓝田庄南区10AB栋东侧区间路",
    "real_address": "汕头市龙湖区兴德街新苗学校",
    "lng": 116.745761,
    "lat": 23.375889
  },
  {
    "name": "珠池62站",
    "address": "广兴市场",
    "real_address": "汕头市龙湖区华兴园11栋4楼",
    "lng": 116.749114,
    "lat": 23.37737
  },
  {
    "name": "珠池63站",
    "address": "南山居委停车场",
    "real_address": "汕头市龙湖区金砂东路南山居委文化广场西北侧约170米",
    "lng": 116.767471,
    "lat": 23.375061
  },
  {
    "name": "珠池64站",
    "address": "南山敬老院",
    "real_address": "汕头市龙湖区南山街东59号",
    "lng": 116.768992,
    "lat": 23.371413
  },
  {
    "name": "珠池65站",
    "address": "原珠汕公司址",
    "real_address": "广东省汕头市龙湖区珠充路珠充工业区汕运公共交通有限公司",
    "lng": 116.758516,
    "lat": 23.3738
  },
  {
    "name": "珠池66站",
    "address": "南山文化广场",
    "real_address": "广东省汕头市龙湖区南山街与南宁街交叉口东南约40米",
    "lng": 116.768073,
    "lat": 23.373308
  },
  {
    "name": "珠池67站",
    "address": "合仔陈氏祠堂",
    "real_address": "汕头市龙湖区中河街南4巷5号603房",
    "lng": 116.762815,
    "lat": 23.371945
  },
  {
    "name": "珠池68站",
    "address": "星湖公园近潮乐社段",
    "real_address": "汕头市龙湖区中山东路与珠港二路交叉路口东侧",
    "lng": 116.743812,
    "lat": 23.360281
  },
  {
    "name": "珠池69站",
    "address": "星湖公园近金泰庄北区段",
    "real_address": "广东省汕头市龙湖区嵩山路与长平路交界",
    "lng": 116.746243,
    "lat": 23.366931
  },
  {
    "name": "珠池70站",
    "address": "金晖南街星港豪园侧大门段",
    "real_address": "广东省汕头市龙湖区",
    "lng": 116.750359,
    "lat": 23.364554
  },
  {
    "name": "珠池71站",
    "address": "金晖南街皇城汇璟后门",
    "real_address": "广东省汕头市龙湖区",
    "lng": 116.750359,
    "lat": 23.364554
  },
  {
    "name": "珠池72站",
    "address": "长平路与黄山路交界处中国银行大门旁",
    "real_address": "汕头市龙湖区大北山一路1号",
    "lng": 116.723684,
    "lat": 23.377938
  },
  {
    "name": "珠池73站",
    "address": "嵩山路翠茵景苑大门",
    "real_address": "汕头市龙湖区嵩山南路23号",
    "lng": 116.74509,
    "lat": 23.367645
  }
]